{
"type": "FeatureCollection",
"name": "borne_recharge_in_festival",
"crs": { "type": "name", "properties": { "name": "urn:ogc:def:crs:OGC:1.3:CRS84" } },
"features": [
{ "type": "Feature", "properties": { "fid": 2693, "nom_enseigne": "Freshmile", "nom_station": "La Gacilly, Rue de l'Hôtel de ville", "implantation_station": "Voirie", "nbre_pdc": "2", "horaires": "24/7", "nom_festival": "Festival de photo de la gacilly" }, "geometry": { "type": "Point", "coordinates": [ -2.13434, 47.7663 ] } },
{ "type": "Feature", "properties": { "fid": 4027, "nom_enseigne": "Morbihan Energies", "nom_station": "La gacilly - Rue de l'Hôtel de ville", "implantation_station": "Voirie", "nbre_pdc": "2", "horaires": "24/7", "nom_festival": "Festival de photo de la gacilly" }, "geometry": { "type": "Point", "coordinates": [ -2.134335, 47.76628 ] } },
{ "type": "Feature", "properties": { "fid": 884, "nom_enseigne": "OUEST CHARGE - 35", "nom_station": "RENNES - AVENUE DE CUCILLE", "implantation_station": "Voirie", "nbre_pdc": "2", "horaires": "24/7", "nom_festival": "Sevenadur" }, "geometry": { "type": "Point", "coordinates": [ -1.699273, 48.12856 ] } },
{ "type": "Feature", "properties": { "fid": 847, "nom_enseigne": "OUEST CHARGE - 35", "nom_station": "RENNES - PLACE HONORE COMMEREUC", "implantation_station": "Voirie", "nbre_pdc": "2", "horaires": "24/7", "nom_festival": "Sevenadur" }, "geometry": { "type": "Point", "coordinates": [ -1.679739, 48.108482 ] } },
{ "type": "Feature", "properties": { "fid": 2762, "nom_enseigne": "Freshmile", "nom_station": "Plescop, Rue de la République", "implantation_station": "Voirie", "nbre_pdc": "2", "horaires": "24/7", "nom_festival": "Festival roue waroch" }, "geometry": { "type": "Point", "coordinates": [ -2.80442, 47.6975 ] } },
{ "type": "Feature", "properties": { "fid": 4202, "nom_enseigne": "Morbihan Energies", "nom_station": "Plescop - Rue de la République", "implantation_station": "Voirie", "nbre_pdc": "2", "horaires": "24/7", "nom_festival": "Festival roue waroch" }, "geometry": { "type": "Point", "coordinates": [ -2.804416, 47.697468 ] } },
{ "type": "Feature", "properties": { "fid": 847, "nom_enseigne": "OUEST CHARGE - 35", "nom_station": "RENNES - PLACE HONORE COMMEREUC", "implantation_station": "Voirie", "nbre_pdc": "2", "horaires": "24/7", "nom_festival": "Le grand soufflet" }, "geometry": { "type": "Point", "coordinates": [ -1.679739, 48.108482 ] } },
{ "type": "Feature", "properties": { "fid": 881, "nom_enseigne": "OUEST CHARGE - 35", "nom_station": "RENNES - BOULEVARD MAGENTA", "implantation_station": "Voirie", "nbre_pdc": "2", "horaires": "24/7", "nom_festival": "Le grand soufflet" }, "geometry": { "type": "Point", "coordinates": [ -1.674677, 48.107149 ] } },
{ "type": "Feature", "properties": { "fid": 845, "nom_enseigne": "OUEST CHARGE - 35", "nom_station": "RENNES - PLACE GEORGES BERNANOS", "implantation_station": "Voirie", "nbre_pdc": "2", "horaires": "24/7", "nom_festival": "Le grand soufflet" }, "geometry": { "type": "Point", "coordinates": [ -1.660564, 48.123829 ] } },
{ "type": "Feature", "properties": { "fid": 373, "nom_enseigne": "OUEST CHARGE - 29", "nom_station": "LANDERNEAU-RUE SAINT-ERNEL", "implantation_station": "Voirie", "nbre_pdc": "2", "horaires": "24/7", "nom_festival": "Kann al loar" }, "geometry": { "type": "Point", "coordinates": [ -4.261381, 48.444599 ] } },
{ "type": "Feature", "properties": { "fid": 367, "nom_enseigne": "OUEST CHARGE - 29", "nom_station": "LANDERNEAU-RUE DE LA FONTAINE BLANCHE", "implantation_station": "Voirie", "nbre_pdc": "2", "horaires": "24/7", "nom_festival": "Kann al loar" }, "geometry": { "type": "Point", "coordinates": [ -4.255886, 48.453716 ] } },
{ "type": "Feature", "properties": { "fid": 376, "nom_enseigne": "OUEST CHARGE - 29", "nom_station": "LANDERNEAU-QUAI DE LEON", "implantation_station": "Voirie", "nbre_pdc": "2", "horaires": "24/7", "nom_festival": "Kann al loar" }, "geometry": { "type": "Point", "coordinates": [ -4.251662, 48.449455 ] } },
{ "type": "Feature", "properties": { "fid": 308, "nom_enseigne": "OUEST CHARGE - 22", "nom_station": "ROSTRENEN-PLACE BOURG KOHZ", "implantation_station": "Voirie", "nbre_pdc": "2", "horaires": "24/7", "nom_festival": "Festival fisel" }, "geometry": { "type": "Point", "coordinates": [ -3.316225, 48.234554 ] } },
{ "type": "Feature", "properties": { "fid": 287, "nom_enseigne": "OUEST CHARGE - 22", "nom_station": "ROSTRENEN-ZA DE GOASNEL ", "implantation_station": "Voirie", "nbre_pdc": "1", "horaires": "24/7", "nom_festival": "Festival fisel" }, "geometry": { "type": "Point", "coordinates": [ -3.313114, 48.242321 ] } },
{ "type": "Feature", "properties": { "fid": 2192, "nom_enseigne": "Freshmile", "nom_station": "E. Leclerc, Plouguernevel", "implantation_station": "Voirie", "nbre_pdc": "2", "horaires": "24/7", "nom_festival": "Festival fisel" }, "geometry": { "type": "Point", "coordinates": [ -3.295977, 48.242535 ] } },
{ "type": "Feature", "properties": { "fid": 3752, "nom_enseigne": "CPO Alizé Liberté Public", "nom_station": "BREST - Avenue Amiral Réveillère", "implantation_station": "Voirie", "nbre_pdc": "2", "horaires": "Mo-Su 00:00-23:59", "nom_festival": "Noborder" }, "geometry": { "type": "Point", "coordinates": [ -4.482921, 48.387238 ] } },
{ "type": "Feature", "properties": { "fid": 3759, "nom_enseigne": "CPO Alizé Liberté Public", "nom_station": "BREST - Rue Jean Marie Le Bris", "implantation_station": "Voirie", "nbre_pdc": "2", "horaires": "Mo-Su 00:00-23:59", "nom_festival": "Noborder" }, "geometry": { "type": "Point", "coordinates": [ -4.485326, 48.383497 ] } },
{ "type": "Feature", "properties": { "fid": 4508, "nom_enseigne": "CPO Alizé Liberté Public", "nom_station": "BREST - Avenue Amiral Réveillère", "implantation_station": "Voirie", "nbre_pdc": "2", "horaires": " 24/7", "nom_festival": "Noborder" }, "geometry": { "type": "Point", "coordinates": [ -4.482921123504639, 48.387237548828125 ] } },
{ "type": "Feature", "properties": { "fid": 4529, "nom_enseigne": "CPO Alizé Liberté Public", "nom_station": "BREST - Rue Jean Marie Le Bris", "implantation_station": "Voirie", "nbre_pdc": "2", "horaires": " 24/7", "nom_festival": "Noborder" }, "geometry": { "type": "Point", "coordinates": [ -4.485325813293457, 48.383495330810547 ] } },
{ "type": "Feature", "properties": { "fid": 2448, "nom_enseigne": "Freshmile", "nom_station": "Lorient, Boulevard Abbé Louis le Cam", "implantation_station": "Voirie", "nbre_pdc": "2", "horaires": "24/7", "nom_festival": "Festival interceltique de lorient" }, "geometry": { "type": "Point", "coordinates": [ -3.3596, 47.7305 ] } },
{ "type": "Feature", "properties": { "fid": 4166, "nom_enseigne": "Morbihan Energies", "nom_station": "Lorient - Rue Raymond du Rallier du Baty", "implantation_station": "Voirie", "nbre_pdc": "2", "horaires": "24/7", "nom_festival": "Festival interceltique de lorient" }, "geometry": { "type": "Point", "coordinates": [ -3.373377, 47.731763 ] } },
{ "type": "Feature", "properties": { "fid": 2781, "nom_enseigne": "Freshmile", "nom_station": "Lorient, Rue Raymond du Rallier du Baty", "implantation_station": "Voirie", "nbre_pdc": "2", "horaires": "24/7", "nom_festival": "Festival interceltique de lorient" }, "geometry": { "type": "Point", "coordinates": [ -3.37338, 47.7318 ] } },
{ "type": "Feature", "properties": { "fid": 4172, "nom_enseigne": "Morbihan Energies", "nom_station": "Lorient - Avenue de la Perrière", "implantation_station": "Voirie", "nbre_pdc": "2", "horaires": "24/7", "nom_festival": "Festival interceltique de lorient" }, "geometry": { "type": "Point", "coordinates": [ -3.365966, 47.735396 ] } },
{ "type": "Feature", "properties": { "fid": 2406, "nom_enseigne": "Freshmile", "nom_station": "Lorient, Avenue de la Perrière", "implantation_station": "Voirie", "nbre_pdc": "2", "horaires": "24/7", "nom_festival": "Festival interceltique de lorient" }, "geometry": { "type": "Point", "coordinates": [ -3.36597, 47.7354 ] } },
{ "type": "Feature", "properties": { "fid": 2454, "nom_enseigne": "Freshmile", "nom_station": "Lorient, Rue Moïse Le Bihan", "implantation_station": "Voirie", "nbre_pdc": "2", "horaires": "24/7", "nom_festival": "Festival interceltique de lorient" }, "geometry": { "type": "Point", "coordinates": [ -3.38255, 47.7362 ] } },
{ "type": "Feature", "properties": { "fid": 2416, "nom_enseigne": "Freshmile", "nom_station": "Lorient, Rue de Lanveur", "implantation_station": "Voirie", "nbre_pdc": "2", "horaires": "24/7", "nom_festival": "Festival interceltique de lorient" }, "geometry": { "type": "Point", "coordinates": [ -3.38746, 47.7427 ] } },
{ "type": "Feature", "properties": { "fid": 2442, "nom_enseigne": "Freshmile", "nom_station": "Lorient, Place d'Armes", "implantation_station": "Voirie", "nbre_pdc": "4", "horaires": "24/7", "nom_festival": "Festival interceltique de lorient" }, "geometry": { "type": "Point", "coordinates": [ -3.35627, 47.7465 ] } },
{ "type": "Feature", "properties": { "fid": 2696, "nom_enseigne": "Freshmile", "nom_station": "Lorient, Rue Jean le Coutaller", "implantation_station": "Voirie", "nbre_pdc": "2", "horaires": "24/7", "nom_festival": "Festival interceltique de lorient" }, "geometry": { "type": "Point", "coordinates": [ -3.36819, 47.7468 ] } },
{ "type": "Feature", "properties": { "fid": 3847, "nom_enseigne": "Morbihan Energies", "nom_station": "Lorient - Rue Jean le Coutaller", "implantation_station": "Voirie", "nbre_pdc": "2", "horaires": "24/7", "nom_festival": "Festival interceltique de lorient" }, "geometry": { "type": "Point", "coordinates": [ -3.368187, 47.746835 ] } },
{ "type": "Feature", "properties": { "fid": 2414, "nom_enseigne": "Freshmile", "nom_station": "Lorient,  Parking Hôtel de Ville", "implantation_station": "Parking public", "nbre_pdc": "2", "horaires": "24/7", "nom_festival": "Festival interceltique de lorient" }, "geometry": { "type": "Point", "coordinates": [ -3.36581, 47.7489 ] } },
{ "type": "Feature", "properties": { "fid": 2763, "nom_enseigne": "Freshmile", "nom_station": "Lorient, Place Anatole Le Braz", "implantation_station": "Voirie", "nbre_pdc": "2", "horaires": "24/7", "nom_festival": "Festival interceltique de lorient" }, "geometry": { "type": "Point", "coordinates": [ -3.36004, 47.749 ] } },
{ "type": "Feature", "properties": { "fid": 4168, "nom_enseigne": "Morbihan Energies", "nom_station": "Lorient - Place Anatole Le Braz", "implantation_station": "Voirie", "nbre_pdc": "2", "horaires": "24/7", "nom_festival": "Festival interceltique de lorient" }, "geometry": { "type": "Point", "coordinates": [ -3.360043, 47.749039 ] } },
{ "type": "Feature", "properties": { "fid": 2779, "nom_enseigne": "Freshmile", "nom_station": "Lorient, Place Alsace Lorraine", "implantation_station": "Voirie", "nbre_pdc": "2", "horaires": "24/7", "nom_festival": "Festival interceltique de lorient" }, "geometry": { "type": "Point", "coordinates": [ -3.36112, 47.7498 ] } },
{ "type": "Feature", "properties": { "fid": 2826, "nom_enseigne": "Freshmile", "nom_station": "Lorient, Boulevard du Maréchal Joffre", "implantation_station": "Voirie", "nbre_pdc": "2", "horaires": "24/7", "nom_festival": "Festival interceltique de lorient" }, "geometry": { "type": "Point", "coordinates": [ -3.36487, 47.7519 ] } },
{ "type": "Feature", "properties": { "fid": 2411, "nom_enseigne": "Freshmile", "nom_station": "Lorient, Rue de Villeneuve", "implantation_station": "Voirie", "nbre_pdc": "2", "horaires": "24/7", "nom_festival": "Festival interceltique de lorient" }, "geometry": { "type": "Point", "coordinates": [ -3.37788, 47.7532 ] } },
{ "type": "Feature", "properties": { "fid": 2768, "nom_enseigne": "Freshmile", "nom_station": "Lorient, Cours Louis de Chazelles", "implantation_station": "Voirie", "nbre_pdc": "2", "horaires": "24/7", "nom_festival": "Festival interceltique de lorient" }, "geometry": { "type": "Point", "coordinates": [ -3.3622, 47.7537 ] } },
{ "type": "Feature", "properties": { "fid": 2397, "nom_enseigne": "Freshmile", "nom_station": "Lorient, Place de La Liberté", "implantation_station": "Voirie", "nbre_pdc": "2", "horaires": "24/7", "nom_festival": "Festival interceltique de lorient" }, "geometry": { "type": "Point", "coordinates": [ -3.38592, 47.7613 ] } },
{ "type": "Feature", "properties": { "fid": 2360, "nom_enseigne": "Freshmile", "nom_station": "Lorient, Rue Léo Lagrange", "implantation_station": "Voirie", "nbre_pdc": "2", "horaires": "24/7", "nom_festival": "Festival interceltique de lorient" }, "geometry": { "type": "Point", "coordinates": [ -3.37854, 47.7629 ] } },
{ "type": "Feature", "properties": { "fid": 4022, "nom_enseigne": "Morbihan Energies", "nom_station": "Lorient - Rue Léo Lagrange", "implantation_station": "Voirie", "nbre_pdc": "2", "horaires": "24/7", "nom_festival": "Festival interceltique de lorient" }, "geometry": { "type": "Point", "coordinates": [ -3.37854, 47.762901 ] } },
{ "type": "Feature", "properties": { "fid": 4175, "nom_enseigne": "Morbihan Energies", "nom_station": "Lorient - Lorient Découverte Rue de Villeneuve", "implantation_station": "Voirie", "nbre_pdc": "2", "horaires": "24/7", "nom_festival": "Festival interceltique de lorient" }, "geometry": { "type": "Point", "coordinates": [ -3.37788, 47.75316 ] } },
{ "type": "Feature", "properties": { "fid": 4177, "nom_enseigne": "Morbihan Energies", "nom_station": "Lorient - Rue de Lanveur", "implantation_station": "Voirie", "nbre_pdc": "2", "horaires": "24/7", "nom_festival": "Festival interceltique de lorient" }, "geometry": { "type": "Point", "coordinates": [ -3.387461, 47.742671 ] } },
{ "type": "Feature", "properties": { "fid": 4181, "nom_enseigne": "Morbihan Energies", "nom_station": "Lorient - Cours Louis de Chazelles", "implantation_station": "Parking public", "nbre_pdc": "2", "horaires": "24/7", "nom_festival": "Festival interceltique de lorient" }, "geometry": { "type": "Point", "coordinates": [ -3.362195, 47.753665 ] } },
{ "type": "Feature", "properties": { "fid": 4182, "nom_enseigne": "Morbihan Energies", "nom_station": "Lorient - Boulevard Abbé Louis le Cam", "implantation_station": "Parking public", "nbre_pdc": "2", "horaires": "24/7", "nom_festival": "Festival interceltique de lorient" }, "geometry": { "type": "Point", "coordinates": [ -3.359602, 47.730545 ] } },
{ "type": "Feature", "properties": { "fid": 4184, "nom_enseigne": "Morbihan Energies", "nom_station": "Lorient - Rue Moïse Le Bihan", "implantation_station": "Parking public", "nbre_pdc": "2", "horaires": "24/7", "nom_festival": "Festival interceltique de lorient" }, "geometry": { "type": "Point", "coordinates": [ -3.382552, 47.736239 ] } },
{ "type": "Feature", "properties": { "fid": 4186, "nom_enseigne": "Morbihan Energies", "nom_station": "Lorient - Boulevard du Maréchal Joffre", "implantation_station": "Voirie", "nbre_pdc": "2", "horaires": "24/7", "nom_festival": "Festival interceltique de lorient" }, "geometry": { "type": "Point", "coordinates": [ -3.364871, 47.751861 ] } },
{ "type": "Feature", "properties": { "fid": 4188, "nom_enseigne": "Morbihan Energies", "nom_station": "Lorient - Place Alsace Lorraine", "implantation_station": "Voirie", "nbre_pdc": "2", "horaires": "24/7", "nom_festival": "Festival interceltique de lorient" }, "geometry": { "type": "Point", "coordinates": [ -3.361121, 47.74982 ] } },
{ "type": "Feature", "properties": { "fid": 4190, "nom_enseigne": "Morbihan Energies", "nom_station": "Lorient - Place d'Armes", "implantation_station": "Parking public", "nbre_pdc": "2", "horaires": "Mo-Sa 07:00-21:00", "nom_festival": "Festival interceltique de lorient" }, "geometry": { "type": "Point", "coordinates": [ -3.356266, 47.746452 ] } },
{ "type": "Feature", "properties": { "fid": 4232, "nom_enseigne": "Morbihan Energies", "nom_station": "Lorient - Boulevard Leclerc - Parking Hôtel De Ville", "implantation_station": "Voirie", "nbre_pdc": "2", "horaires": "24/7", "nom_festival": "Festival interceltique de lorient" }, "geometry": { "type": "Point", "coordinates": [ -3.36581, 47.748922 ] } },
{ "type": "Feature", "properties": { "fid": 4252, "nom_enseigne": "Morbihan Energies", "nom_station": "Lorient - Place de La Liberté", "implantation_station": "Voirie", "nbre_pdc": "2", "horaires": "24/7", "nom_festival": "Festival interceltique de lorient" }, "geometry": { "type": "Point", "coordinates": [ -3.385916, 47.761289 ] } },
{ "type": "Feature", "properties": { "fid": 4313, "nom_enseigne": "Volkswagen à Saint-Omer - DELATTRE AUTOMOBILES", "nom_station": "Volkswagen Saint Omer", "implantation_station": "Parking privé à usage public", "nbre_pdc": "4", "horaires": "24/7", "nom_festival": "Festival interceltique de lorient" }, "geometry": { "type": "Point", "coordinates": [ -3.375787, 47.735083 ] } },
{ "type": "Feature", "properties": { "fid": 4348, "nom_enseigne": "BMW LORIENT", "nom_station": "Bmw Lorient", "implantation_station": "Parking privé à usage public", "nbre_pdc": "6", "horaires": "Mo 08:00-12:00, Mo 13:30-19:00, Tu 08:00-12:00, Tu 13:30-19:00, We 08:00-12:00, We 13:30-19:00, Th 08:00-12:00, Th 13:30-19:00, Fr 08:00-12:00, Fr 13:30-19:00, Sa 08:30-12:00, Sa 13:30-19:00", "nom_festival": "Festival interceltique de lorient" }, "geometry": { "type": "Point", "coordinates": [ -3.375791, 47.735093 ] } },
{ "type": "Feature", "properties": { "fid": 400, "nom_enseigne": "OUEST CHARGE - 29", "nom_station": "CROZON-RUE DE LATLANTIQUE", "implantation_station": "Voirie", "nbre_pdc": "2", "horaires": "24/7", "nom_festival": "Festival du bout du monde" }, "geometry": { "type": "Point", "coordinates": [ -4.506578, 48.2258 ] } },
{ "type": "Feature", "properties": { "fid": 396, "nom_enseigne": "OUEST CHARGE - 29", "nom_station": "CROZON-RUE DE LA MARNE", "implantation_station": "Voirie", "nbre_pdc": "2", "horaires": "24/7", "nom_festival": "Festival du bout du monde" }, "geometry": { "type": "Point", "coordinates": [ -4.491614, 48.248337 ] } },
{ "type": "Feature", "properties": { "fid": 884, "nom_enseigne": "OUEST CHARGE - 35", "nom_station": "RENNES - AVENUE DE CUCILLE", "implantation_station": "Voirie", "nbre_pdc": "2", "horaires": "24/7", "nom_festival": "Festival yaouank" }, "geometry": { "type": "Point", "coordinates": [ -1.699273, 48.12856 ] } },
{ "type": "Feature", "properties": { "fid": 268, "nom_enseigne": "OUEST CHARGE - 22", "nom_station": "LEHON-LE BOURG", "implantation_station": "Voirie", "nbre_pdc": "2", "horaires": "24/7", "nom_festival": "Rencontres internationales de harpe celtique" }, "geometry": { "type": "Point", "coordinates": [ -2.042515, 48.442223 ] } },
{ "type": "Feature", "properties": { "fid": 2114, "nom_enseigne": "Freshmile", "nom_station": "Dinan, Hôtel du Château", "implantation_station": "Voirie", "nbre_pdc": "2", "horaires": "24/7", "nom_festival": "Rencontres internationales de harpe celtique" }, "geometry": { "type": "Point", "coordinates": [ -2.04393, 48.4501 ] } },
{ "type": "Feature", "properties": { "fid": 86, "nom_enseigne": "OUEST CHARGE - 22", "nom_station": "DINAN-PLACE DUGUESCLIN", "implantation_station": "Voirie", "nbre_pdc": "2", "horaires": "24/7", "nom_festival": "Rencontres internationales de harpe celtique" }, "geometry": { "type": "Point", "coordinates": [ -2.0441, 48.450901 ] } },
{ "type": "Feature", "properties": { "fid": 184, "nom_enseigne": "OUEST CHARGE - 22", "nom_station": "LANVALLAY-PLACE DU 19 MARS 1962", "implantation_station": "Voirie", "nbre_pdc": "2", "horaires": "24/7", "nom_festival": "Rencontres internationales de harpe celtique" }, "geometry": { "type": "Point", "coordinates": [ -2.028889, 48.455833 ] } },
{ "type": "Feature", "properties": { "fid": 187, "nom_enseigne": "OUEST CHARGE - 22", "nom_station": "DINAN-PARKING RUE DESROYER", "implantation_station": "Voirie", "nbre_pdc": "2", "horaires": "24/7", "nom_festival": "Rencontres internationales de harpe celtique" }, "geometry": { "type": "Point", "coordinates": [ -2.0562, 48.4561 ] } },
{ "type": "Feature", "properties": { "fid": 2862, "nom_enseigne": "Freshmile", "nom_station": "Dinan, Hôtel Arvor", "implantation_station": "Parking public", "nbre_pdc": "2", "horaires": "24/7", "nom_festival": "Rencontres internationales de harpe celtique" }, "geometry": { "type": "Point", "coordinates": [ -2.042848, 48.452547 ] } },
{ "type": "Feature", "properties": { "fid": 2868, "nom_enseigne": "Freshmile", "nom_station": "Taden, LS Group Dinan", "implantation_station": "Voirie", "nbre_pdc": "4", "horaires": "24/7", "nom_festival": "Rencontres internationales de harpe celtique" }, "geometry": { "type": "Point", "coordinates": [ -2.05903764, 48.4648759 ] } },
{ "type": "Feature", "properties": { "fid": 2159, "nom_enseigne": "Freshmile", "nom_station": "Concarneau, Burger King", "implantation_station": "Voirie", "nbre_pdc": "2", "horaires": "24/7", "nom_festival": "Festival des filets bleus" }, "geometry": { "type": "Point", "coordinates": [ -3.90760516, 47.90089427 ] } },
{ "type": "Feature", "properties": { "fid": 408, "nom_enseigne": "OUEST CHARGE - 29", "nom_station": "CONCARNEAU-RUE LERAY", "implantation_station": "Voirie", "nbre_pdc": "2", "horaires": "24/7", "nom_festival": "Festival des filets bleus" }, "geometry": { "type": "Point", "coordinates": [ -3.917199, 47.870399 ] } },
{ "type": "Feature", "properties": { "fid": 421, "nom_enseigne": "OUEST CHARGE - 29", "nom_station": "CONCARNEAU-QUAI DAIGUILLON", "implantation_station": "Voirie", "nbre_pdc": "2", "horaires": "24/7", "nom_festival": "Festival des filets bleus" }, "geometry": { "type": "Point", "coordinates": [ -3.9177, 47.87339 ] } },
{ "type": "Feature", "properties": { "fid": 391, "nom_enseigne": "OUEST CHARGE - 29", "nom_station": "CONCARNEAU-RUE CLAUDE DEBUSSY", "implantation_station": "Voirie", "nbre_pdc": "2", "horaires": "24/7", "nom_festival": "Festival des filets bleus" }, "geometry": { "type": "Point", "coordinates": [ -3.924636, 47.877735 ] } },
{ "type": "Feature", "properties": { "fid": 775, "nom_enseigne": "OUEST CHARGE - 29", "nom_station": "QUIMPER-RUE ROUGET DE LISLE", "implantation_station": "Voirie", "nbre_pdc": "2", "horaires": "24/7", "nom_festival": "Festival de cornouaille" }, "geometry": { "type": "Point", "coordinates": [ -4.106417, 47.999485 ] } },
{ "type": "Feature", "properties": { "fid": 770, "nom_enseigne": "OUEST CHARGE - 29", "nom_station": "QUIMPER-PLACE DE LA RESISTANCE ET DU GENERAL DE GAULLE", "implantation_station": "Voirie", "nbre_pdc": "2", "horaires": "24/7", "nom_festival": "Festival de cornouaille" }, "geometry": { "type": "Point", "coordinates": [ -4.104504, 47.993977 ] } },
{ "type": "Feature", "properties": { "fid": 772, "nom_enseigne": "OUEST CHARGE - 29", "nom_station": "QUIMPER-PLACE DE LA TOURBIE", "implantation_station": "Voirie", "nbre_pdc": "2", "horaires": "24/7", "nom_festival": "Festival de cornouaille" }, "geometry": { "type": "Point", "coordinates": [ -4.102052, 47.999451 ] } },
{ "type": "Feature", "properties": { "fid": 771, "nom_enseigne": "OUEST CHARGE - 29", "nom_station": "QUIMPER-ALEZ AN EOSTIGED", "implantation_station": "Voirie", "nbre_pdc": "2", "horaires": "24/7", "nom_festival": "Festival de cornouaille" }, "geometry": { "type": "Point", "coordinates": [ -4.095822, 48.006672 ] } },
{ "type": "Feature", "properties": { "fid": 783, "nom_enseigne": "OUEST CHARGE - 29", "nom_station": "QUIMPER-ROUTE DE TY NAY", "implantation_station": "Voirie", "nbre_pdc": "2", "horaires": "24/7", "nom_festival": "Festival de cornouaille" }, "geometry": { "type": "Point", "coordinates": [ -4.095428, 48.010571 ] } },
{ "type": "Feature", "properties": { "fid": 761, "nom_enseigne": "OUEST CHARGE - 29", "nom_station": "QUIMPER-MPT DE KERFEUNTEUN", "implantation_station": "Voirie", "nbre_pdc": "2", "horaires": "24/7", "nom_festival": "Festival de cornouaille" }, "geometry": { "type": "Point", "coordinates": [ -4.093842, 48.00309 ] } },
{ "type": "Feature", "properties": { "fid": 365, "nom_enseigne": "OUEST CHARGE - 29", "nom_station": "QUIMPER-BOULEVARD DU FINISTERE", "implantation_station": "Voirie", "nbre_pdc": "2", "horaires": "24/7", "nom_festival": "Festival de cornouaille" }, "geometry": { "type": "Point", "coordinates": [ -4.093657, 48.013607 ] } },
{ "type": "Feature", "properties": { "fid": 800, "nom_enseigne": "OUEST CHARGE - 35", "nom_station": "BAIN DE BRETAGNE - AVENUE DU GENERAL PATTON", "implantation_station": "Voirie", "nbre_pdc": "2", "horaires": "24/7", "nom_festival": "Festival du schmoul" }, "geometry": { "type": "Point", "coordinates": [ -1.688088, 47.843349 ] } },
{ "type": "Feature", "properties": { "fid": 956, "nom_enseigne": "OUEST CHARGE - 35", "nom_station": "CHATEAUNEUF D ILLE ET VILAINE - 5 RUE DES MARAIS", "implantation_station": "Voirie", "nbre_pdc": "2", "horaires": "24/7", "nom_festival": "No logo bzh" }, "geometry": { "type": "Point", "coordinates": [ -1.928953, 48.559895 ] } },
{ "type": "Feature", "properties": { "fid": 861, "nom_enseigne": "OUEST CHARGE - 35", "nom_station": "SAINT PERE MARC EN POULET   AIRE DE CO-VOITURAGE DU FORT SAINT PERE", "implantation_station": "Voirie", "nbre_pdc": "2", "horaires": "24/7", "nom_festival": "No logo bzh" }, "geometry": { "type": "Point", "coordinates": [ -1.923189, 48.565186 ] } },
{ "type": "Feature", "properties": { "fid": 847, "nom_enseigne": "OUEST CHARGE - 35", "nom_station": "RENNES - PLACE HONORE COMMEREUC", "implantation_station": "Voirie", "nbre_pdc": "2", "horaires": "24/7", "nom_festival": "Les rencontres trans musicales de rennes" }, "geometry": { "type": "Point", "coordinates": [ -1.679739, 48.108482 ] } },
{ "type": "Feature", "properties": { "fid": 881, "nom_enseigne": "OUEST CHARGE - 35", "nom_station": "RENNES - BOULEVARD MAGENTA", "implantation_station": "Voirie", "nbre_pdc": "2", "horaires": "24/7", "nom_festival": "Les rencontres trans musicales de rennes" }, "geometry": { "type": "Point", "coordinates": [ -1.674677, 48.107149 ] } },
{ "type": "Feature", "properties": { "fid": 841, "nom_enseigne": "OUEST CHARGE - 35", "nom_station": "RENNES - AVENUE HENRI FREVILLE", "implantation_station": "Voirie", "nbre_pdc": "2", "horaires": "24/7", "nom_festival": "Les rencontres trans musicales de rennes" }, "geometry": { "type": "Point", "coordinates": [ -1.674198, 48.092412 ] } },
{ "type": "Feature", "properties": { "fid": 2556, "nom_enseigne": "Freshmile", "nom_station": "St Jacques de la Lande, Super U", "implantation_station": "Voirie", "nbre_pdc": "5", "horaires": "24/7", "nom_festival": "Les rencontres trans musicales de rennes" }, "geometry": { "type": "Point", "coordinates": [ -1.692802, 48.092451 ] } },
{ "type": "Feature", "properties": { "fid": 579, "nom_enseigne": "OUEST CHARGE - 29", "nom_station": "LESNEVEN-RUE VALY GOZ", "implantation_station": "Voirie", "nbre_pdc": "2", "horaires": "24/7", "nom_festival": "Festival legend'air" }, "geometry": { "type": "Point", "coordinates": [ -4.320383, 48.573498 ] } },
{ "type": "Feature", "properties": { "fid": 864, "nom_enseigne": "OUEST CHARGE - 35", "nom_station": "VERN-SUR-SEICHE - PLACE DE LA MAIRIE", "implantation_station": "Voirie", "nbre_pdc": "2", "horaires": "24/7", "nom_festival": "Feu au lac" }, "geometry": { "type": "Point", "coordinates": [ -1.602782, 48.044979 ] } },
{ "type": "Feature", "properties": { "fid": 3752, "nom_enseigne": "CPO Alizé Liberté Public", "nom_station": "BREST - Avenue Amiral Réveillère", "implantation_station": "Voirie", "nbre_pdc": "2", "horaires": "Mo-Su 00:00-23:59", "nom_festival": "Festival invisible" }, "geometry": { "type": "Point", "coordinates": [ -4.482921, 48.387238 ] } },
{ "type": "Feature", "properties": { "fid": 3759, "nom_enseigne": "CPO Alizé Liberté Public", "nom_station": "BREST - Rue Jean Marie Le Bris", "implantation_station": "Voirie", "nbre_pdc": "2", "horaires": "Mo-Su 00:00-23:59", "nom_festival": "Festival invisible" }, "geometry": { "type": "Point", "coordinates": [ -4.485326, 48.383497 ] } },
{ "type": "Feature", "properties": { "fid": 4508, "nom_enseigne": "CPO Alizé Liberté Public", "nom_station": "BREST - Avenue Amiral Réveillère", "implantation_station": "Voirie", "nbre_pdc": "2", "horaires": " 24/7", "nom_festival": "Festival invisible" }, "geometry": { "type": "Point", "coordinates": [ -4.482921123504639, 48.387237548828125 ] } },
{ "type": "Feature", "properties": { "fid": 4529, "nom_enseigne": "CPO Alizé Liberté Public", "nom_station": "BREST - Rue Jean Marie Le Bris", "implantation_station": "Voirie", "nbre_pdc": "2", "horaires": " 24/7", "nom_festival": "Festival invisible" }, "geometry": { "type": "Point", "coordinates": [ -4.485325813293457, 48.383495330810547 ] } },
{ "type": "Feature", "properties": { "fid": 2445, "nom_enseigne": "Freshmile", "nom_station": "Lanester, Avenue François Billoux", "implantation_station": "Voirie", "nbre_pdc": "2", "horaires": "24/7", "nom_festival": "Insolent collection automne" }, "geometry": { "type": "Point", "coordinates": [ -3.34964, 47.7633 ] } },
{ "type": "Feature", "properties": { "fid": 4265, "nom_enseigne": "Morbihan Energies", "nom_station": "Lanester - Avenue françois Billoux", "implantation_station": "Voirie", "nbre_pdc": "2", "horaires": "24/7", "nom_festival": "Insolent collection automne" }, "geometry": { "type": "Point", "coordinates": [ -3.349639, 47.763304 ] } },
{ "type": "Feature", "properties": { "fid": 2430, "nom_enseigne": "Freshmile", "nom_station": "Lanester, Rue Youri Gagarine", "implantation_station": "Voirie", "nbre_pdc": "2", "horaires": "24/7", "nom_festival": "Insolent collection automne" }, "geometry": { "type": "Point", "coordinates": [ -3.34107, 47.7743 ] } },
{ "type": "Feature", "properties": { "fid": 3790, "nom_enseigne": "ALLEGO", "nom_station": "CASINO LANESTER", "implantation_station": "Parking privé à usage public", "nbre_pdc": "10", "horaires": "24/7", "nom_festival": "Insolent collection automne" }, "geometry": { "type": "Point", "coordinates": [ -3.344864, 47.776331 ] } },
{ "type": "Feature", "properties": { "fid": 1857, "nom_enseigne": "FORD LORIENT", "nom_station": "Ford - Lanester - 24 kW DC ", "implantation_station": "Parking public", "nbre_pdc": "1", "horaires": "Mo-sat 09:00-19:00", "nom_festival": "Insolent collection automne" }, "geometry": { "type": "Point", "coordinates": [ -3.33756327, 47.77843796 ] } },
{ "type": "Feature", "properties": { "fid": 3812, "nom_enseigne": "Supercharger Tesla", "nom_station": "Lorient, France - Caudan", "implantation_station": "Station dédiée à la recharge rapide", "nbre_pdc": "8", "horaires": "24/7", "nom_festival": "Insolent collection automne" }, "geometry": { "type": "Point", "coordinates": [ -3.330148, 47.787588 ] } },
{ "type": "Feature", "properties": { "fid": 4264, "nom_enseigne": "Morbihan Energies", "nom_station": "Lanester - Rue Youri Gagarine", "implantation_station": "Voirie", "nbre_pdc": "2", "horaires": "24/7", "nom_festival": "Insolent collection automne" }, "geometry": { "type": "Point", "coordinates": [ -3.341074, 47.774319 ] } },
{ "type": "Feature", "properties": { "fid": 4274, "nom_enseigne": "VOLVO Pemzec Automobiles Lorient", "nom_station": "Volvo Lorient", "implantation_station": "Parking privé à usage public", "nbre_pdc": "2", "horaires": "24/7", "nom_festival": "Insolent collection automne" }, "geometry": { "type": "Point", "coordinates": [ -3.348974, 47.779781 ] } },
{ "type": "Feature", "properties": { "fid": 4352, "nom_enseigne": "Hyundai Lorient - Auto Océane", "nom_station": "Hyundai Lorient", "implantation_station": "Parking privé à usage public", "nbre_pdc": "2", "horaires": "Mo 08:00-12:00, Mo 14:00-19:00, Tu 08:00-12:00, Tu 14:00-19:00, We 08:00-12:00, We 14:00-19:00, Th 08:00-12:00, Th 14:00-19:00, Fr 08:00-12:00, Fr 14:00-19:00, Sa 09:00-12:00, Sa 14:00-18:00", "nom_festival": "Insolent collection automne" }, "geometry": { "type": "Point", "coordinates": [ -3.33951, 47.781386 ] } },
{ "type": "Feature", "properties": { "fid": 100, "nom_enseigne": "OUEST CHARGE - 22", "nom_station": "EVRAN-RUE DE LAPOTHICAIRE", "implantation_station": "Voirie", "nbre_pdc": "2", "horaires": "24/7", "nom_festival": "Festival des arts sonnés" }, "geometry": { "type": "Point", "coordinates": [ -1.9816, 48.381901 ] } },
{ "type": "Feature", "properties": { "fid": 909, "nom_enseigne": "OUEST CHARGE - 35", "nom_station": "VITRE - RUE DU FOUGERAY", "implantation_station": "Voirie", "nbre_pdc": "2", "horaires": "24/7", "nom_festival": "Don jigi fest" }, "geometry": { "type": "Point", "coordinates": [ -1.218257, 48.108665 ] } },
{ "type": "Feature", "properties": { "fid": 908, "nom_enseigne": "OUEST CHARGE - 35", "nom_station": "VITRE - PLACE DU GENERAL DE GAULLE", "implantation_station": "Voirie", "nbre_pdc": "2", "horaires": "24/7", "nom_festival": "Don jigi fest" }, "geometry": { "type": "Point", "coordinates": [ -1.211315, 48.122837 ] } },
{ "type": "Feature", "properties": { "fid": 2254, "nom_enseigne": "Freshmile", "nom_station": "Vitré, Audi Volkswagen Daniel Mouton", "implantation_station": "Voirie", "nbre_pdc": "2", "horaires": "24/7", "nom_festival": "Don jigi fest" }, "geometry": { "type": "Point", "coordinates": [ -1.208492, 48.1096611 ] } },
{ "type": "Feature", "properties": { "fid": 4273, "nom_enseigne": "Borne de charge 2X22 KW WITTY PARK", "nom_station": "Le magic, VITRE", "implantation_station": "Parking privé à usage public", "nbre_pdc": "4", "horaires": "Mo-Fr 14:00-18:00", "nom_festival": "Don jigi fest" }, "geometry": { "type": "Point", "coordinates": [ -1.21, 48.12 ] } },
{ "type": "Feature", "properties": { "fid": 2656, "nom_enseigne": "Freshmile", "nom_station": "Trégueux, Hôtel l'Eskemm", "implantation_station": "Voirie", "nbre_pdc": "2", "horaires": "24/7", "nom_festival": "Carnavalorock" }, "geometry": { "type": "Point", "coordinates": [ -2.76673, 48.4924 ] } },
{ "type": "Feature", "properties": { "fid": 1036, "nom_enseigne": "QOVOLTIS", "nom_station": "52 RUE DU GUÉ LAMBERT Hôtel Kyriad Direct Sai", "implantation_station": "Parking privé à usage public", "nbre_pdc": "6", "horaires": "24/7", "nom_festival": "Carnavalorock" }, "geometry": { "type": "Point", "coordinates": [ -2.76491, 48.49415 ] } },
{ "type": "Feature", "properties": { "fid": 1932, "nom_enseigne": "Freshmile", "nom_station": "E.Leclerc, Ploufragan", "implantation_station": "Voirie", "nbre_pdc": "4", "horaires": "24/7", "nom_festival": "Carnavalorock" }, "geometry": { "type": "Point", "coordinates": [ -2.77855612, 48.49861058 ] } },
{ "type": "Feature", "properties": { "fid": 2561, "nom_enseigne": "Freshmile", "nom_station": "Saint Brieuc, rue Pierre Gilles de Gennes", "implantation_station": "Voirie", "nbre_pdc": "3", "horaires": "Mo-Fr 08:00-18:30,Sa 09:00-17:30", "nom_festival": "Carnavalorock" }, "geometry": { "type": "Point", "coordinates": [ -2.74049362, 48.50173471 ] } },
{ "type": "Feature", "properties": { "fid": 240, "nom_enseigne": "OUEST CHARGE - 22", "nom_station": "SAINT BRIEUC-53 BOULEVARD CARNOT", "implantation_station": "Voirie", "nbre_pdc": "2", "horaires": "24/7", "nom_festival": "Carnavalorock" }, "geometry": { "type": "Point", "coordinates": [ -2.768753, 48.506653 ] } },
{ "type": "Feature", "properties": { "fid": 305, "nom_enseigne": "OUEST CHARGE - 22", "nom_station": "SAINT BRIEUC-18 RUE COURTELINE", "implantation_station": "Voirie", "nbre_pdc": "2", "horaires": "24/7", "nom_festival": "Carnavalorock" }, "geometry": { "type": "Point", "coordinates": [ -2.779689, 48.514324 ] } },
{ "type": "Feature", "properties": { "fid": 70, "nom_enseigne": "OUEST CHARGE - 22", "nom_station": "SAINT BRIEUC-RUE DES PROMENADES", "implantation_station": "Voirie", "nbre_pdc": "2", "horaires": "24/7", "nom_festival": "Carnavalorock" }, "geometry": { "type": "Point", "coordinates": [ -2.757097, 48.514561 ] } },
{ "type": "Feature", "properties": { "fid": 76, "nom_enseigne": "OUEST CHARGE - 22", "nom_station": "SAINT BRIEUC-RUE DU LEGUE", "implantation_station": "Voirie", "nbre_pdc": "2", "horaires": "24/7", "nom_festival": "Carnavalorock" }, "geometry": { "type": "Point", "coordinates": [ -2.765253, 48.518089 ] } },
{ "type": "Feature", "properties": { "fid": 273, "nom_enseigne": "OUEST CHARGE - 22", "nom_station": "SAINT BRIEUC-QUAI ARMEZ ", "implantation_station": "Voirie", "nbre_pdc": "2", "horaires": "24/7", "nom_festival": "Carnavalorock" }, "geometry": { "type": "Point", "coordinates": [ -2.751509, 48.52273 ] } },
{ "type": "Feature", "properties": { "fid": 3493, "nom_enseigne": "Freshmile", "nom_station": "Saint Brieuc, rue Pierre Gilles de Gennes", "implantation_station": "Voirie", "nbre_pdc": "3", "horaires": "Mo-Sa 08:00-18:30", "nom_festival": "Carnavalorock" }, "geometry": { "type": "Point", "coordinates": [ -2.74069, 48.501797 ] } },
{ "type": "Feature", "properties": { "fid": 4296, "nom_enseigne": "OuestBmw22950*1", "nom_station": "Bmw Saint-Brieuc", "implantation_station": "Parking privé à usage public", "nbre_pdc": "11", "horaires": "24/7", "nom_festival": "Carnavalorock" }, "geometry": { "type": "Point", "coordinates": [ -2.767727, 48.490066 ] } },
{ "type": "Feature", "properties": { "fid": 4319, "nom_enseigne": "Ford Saint-Brieuc - Contacts automobiles", "nom_station": "Ford Saint-Brieuc", "implantation_station": "Parking privé à usage public", "nbre_pdc": "2", "horaires": "24/7", "nom_festival": "Carnavalorock" }, "geometry": { "type": "Point", "coordinates": [ -2.74128, 48.5013 ] } },
{ "type": "Feature", "properties": { "fid": 4474, "nom_enseigne": "non_renseigné", "nom_station": "SAINT BRIEUC - Jules Valès", "implantation_station": "Voirie", "nbre_pdc": "2", "horaires": " 24/7", "nom_festival": "Carnavalorock" }, "geometry": { "type": "Point", "coordinates": [ -2.74826, 48.500991 ] } },
{ "type": "Feature", "properties": { "fid": 4616, "nom_enseigne": "QOVOLTIS", "nom_station": "52 RUE DU GUÉ LAMBERT Hôtel Kyriad Direct Sai", "implantation_station": "Parking privé à usage public", "nbre_pdc": "6", "horaires": "24/7", "nom_festival": "Carnavalorock" }, "geometry": { "type": "Point", "coordinates": [ -2.7649063, 48.4941535 ] } },
{ "type": "Feature", "properties": { "fid": 2695, "nom_enseigne": "Freshmile", "nom_station": "Malestroit, Place du Docteur Queinnec Rapide", "implantation_station": "Voirie", "nbre_pdc": "2", "horaires": "24/7", "nom_festival": "Au pont du rock" }, "geometry": { "type": "Point", "coordinates": [ -2.38442, 47.8099 ] } },
{ "type": "Feature", "properties": { "fid": 2502, "nom_enseigne": "Freshmile", "nom_station": "Malestroit, Place du Docteur Jean Queinnec", "implantation_station": "Voirie", "nbre_pdc": "2", "horaires": "24/7", "nom_festival": "Au pont du rock" }, "geometry": { "type": "Point", "coordinates": [ -2.38363, 47.8107 ] } },
{ "type": "Feature", "properties": { "fid": 3998, "nom_enseigne": "Morbihan Energies", "nom_station": "Malestroit - Place du Docteur Jean Queinnec", "implantation_station": "Voirie", "nbre_pdc": "2", "horaires": "24/7", "nom_festival": "Au pont du rock" }, "geometry": { "type": "Point", "coordinates": [ -2.38363, 47.810723 ] } },
{ "type": "Feature", "properties": { "fid": 4021, "nom_enseigne": "Morbihan Energies", "nom_station": "Malestroit - Place du Docteur Jean Queinnec", "implantation_station": "Voirie", "nbre_pdc": "2", "horaires": "24/7", "nom_festival": "Au pont du rock" }, "geometry": { "type": "Point", "coordinates": [ -2.384419, 47.809912 ] } },
{ "type": "Feature", "properties": { "fid": 2529, "nom_enseigne": "Freshmile", "nom_station": "Arradon, Rue de la Carrière", "implantation_station": "Voirie", "nbre_pdc": "2", "horaires": "24/7", "nom_festival": "Algues au rythme" }, "geometry": { "type": "Point", "coordinates": [ -2.83013, 47.6149 ] } },
{ "type": "Feature", "properties": { "fid": 2436, "nom_enseigne": "Freshmile", "nom_station": "Arradon, Plessis d'Arradon", "implantation_station": "Voirie", "nbre_pdc": "2", "horaires": "24/7", "nom_festival": "Algues au rythme" }, "geometry": { "type": "Point", "coordinates": [ -2.82373, 47.6269 ] } },
{ "type": "Feature", "properties": { "fid": 3821, "nom_enseigne": "Morbihan Energies", "nom_station": "ARRADON - Rue de la Carrière", "implantation_station": "Voirie", "nbre_pdc": "2", "horaires": "24/7", "nom_festival": "Algues au rythme" }, "geometry": { "type": "Point", "coordinates": [ -2.83016002077974, 47.614870270159997 ] } },
{ "type": "Feature", "properties": { "fid": 3836, "nom_enseigne": "Morbihan Energies", "nom_station": "ARRADON - Plessis d'Arradon", "implantation_station": "Voirie", "nbre_pdc": "2", "horaires": "24/7", "nom_festival": "Algues au rythme" }, "geometry": { "type": "Point", "coordinates": [ -2.82373725796509, 47.626906619766899 ] } },
{ "type": "Feature", "properties": { "fid": 1000, "nom_enseigne": "OUEST CHARGE - 35", "nom_station": "LA MEZIERE - RUE DE MONTSIFROT", "implantation_station": "Voirie", "nbre_pdc": "2", "horaires": "24/7", "nom_festival": "Samain festival" }, "geometry": { "type": "Point", "coordinates": [ -1.754816, 48.220081 ] } },
{ "type": "Feature", "properties": { "fid": 3752, "nom_enseigne": "CPO Alizé Liberté Public", "nom_station": "BREST - Avenue Amiral Réveillère", "implantation_station": "Voirie", "nbre_pdc": "2", "horaires": "Mo-Su 00:00-23:59", "nom_festival": "Jeudis du port" }, "geometry": { "type": "Point", "coordinates": [ -4.482921, 48.387238 ] } },
{ "type": "Feature", "properties": { "fid": 3759, "nom_enseigne": "CPO Alizé Liberté Public", "nom_station": "BREST - Rue Jean Marie Le Bris", "implantation_station": "Voirie", "nbre_pdc": "2", "horaires": "Mo-Su 00:00-23:59", "nom_festival": "Jeudis du port" }, "geometry": { "type": "Point", "coordinates": [ -4.485326, 48.383497 ] } },
{ "type": "Feature", "properties": { "fid": 4508, "nom_enseigne": "CPO Alizé Liberté Public", "nom_station": "BREST - Avenue Amiral Réveillère", "implantation_station": "Voirie", "nbre_pdc": "2", "horaires": " 24/7", "nom_festival": "Jeudis du port" }, "geometry": { "type": "Point", "coordinates": [ -4.482921123504639, 48.387237548828125 ] } },
{ "type": "Feature", "properties": { "fid": 4529, "nom_enseigne": "CPO Alizé Liberté Public", "nom_station": "BREST - Rue Jean Marie Le Bris", "implantation_station": "Voirie", "nbre_pdc": "2", "horaires": " 24/7", "nom_festival": "Jeudis du port" }, "geometry": { "type": "Point", "coordinates": [ -4.485325813293457, 48.383495330810547 ] } },
{ "type": "Feature", "properties": { "fid": 344, "nom_enseigne": "OUEST CHARGE - 22", "nom_station": "QUESSOY-PLACE DE LEGLISE PARKING MAIRIE", "implantation_station": "Voirie", "nbre_pdc": "2", "horaires": "24/7", "nom_festival": "Les sons d'automne a quessoy" }, "geometry": { "type": "Point", "coordinates": [ -2.657751, 48.42165 ] } },
{ "type": "Feature", "properties": { "fid": 2530, "nom_enseigne": "Freshmile", "nom_station": "Vannes, Rue du Commerce", "implantation_station": "Voirie", "nbre_pdc": "2", "horaires": "24/7", "nom_festival": "L'eveil du boucan" }, "geometry": { "type": "Point", "coordinates": [ -2.75489, 47.6421 ] } },
{ "type": "Feature", "properties": { "fid": 1960, "nom_enseigne": "Freshmile", "nom_station": "Séné, Easy Rool", "implantation_station": "Voirie", "nbre_pdc": "1", "horaires": "24/7", "nom_festival": "L'eveil du boucan" }, "geometry": { "type": "Point", "coordinates": [ -2.733662, 47.653039 ] } },
{ "type": "Feature", "properties": { "fid": 2542, "nom_enseigne": "Freshmile", "nom_station": "Vannes, Place de la République", "implantation_station": "Voirie", "nbre_pdc": "2", "horaires": "24/7", "nom_festival": "L'eveil du boucan" }, "geometry": { "type": "Point", "coordinates": [ -2.75941, 47.6563 ] } },
{ "type": "Feature", "properties": { "fid": 2428, "nom_enseigne": "Freshmile", "nom_station": "Vannes, Avenue Général Délestraint", "implantation_station": "Voirie", "nbre_pdc": "2", "horaires": "24/7", "nom_festival": "L'eveil du boucan" }, "geometry": { "type": "Point", "coordinates": [ -2.73063, 47.6586 ] } },
{ "type": "Feature", "properties": { "fid": 2357, "nom_enseigne": "Freshmile", "nom_station": "Vannes, Rue Alain Gerbault", "implantation_station": "Voirie", "nbre_pdc": "2", "horaires": "24/7", "nom_festival": "L'eveil du boucan" }, "geometry": { "type": "Point", "coordinates": [ -2.7308, 47.6654 ] } },
{ "type": "Feature", "properties": { "fid": 2544, "nom_enseigne": "Freshmile", "nom_station": "Vannes, Rue Henri Matisse", "implantation_station": "Voirie", "nbre_pdc": "2", "horaires": "24/7", "nom_festival": "L'eveil du boucan" }, "geometry": { "type": "Point", "coordinates": [ -2.76808, 47.6709 ] } },
{ "type": "Feature", "properties": { "fid": 2703, "nom_enseigne": "Freshmile", "nom_station": "Vannes, Place Général de Gaulle", "implantation_station": "Voirie", "nbre_pdc": "2", "horaires": "24/7", "nom_festival": "L'eveil du boucan" }, "geometry": { "type": "Point", "coordinates": [ -2.754, 47.6586 ] } },
{ "type": "Feature", "properties": { "fid": 2756, "nom_enseigne": "Freshmile", "nom_station": "Vannes, Place de la Libération", "implantation_station": "Voirie", "nbre_pdc": "2", "horaires": "24/7", "nom_festival": "L'eveil du boucan" }, "geometry": { "type": "Point", "coordinates": [ -2.7638, 47.6588 ] } },
{ "type": "Feature", "properties": { "fid": 2777, "nom_enseigne": "Freshmile", "nom_station": "Vannes, Avenue Jean-Marie Bécel", "implantation_station": "Voirie", "nbre_pdc": "2", "horaires": "24/7", "nom_festival": "L'eveil du boucan" }, "geometry": { "type": "Point", "coordinates": [ -2.77215, 47.658 ] } },
{ "type": "Feature", "properties": { "fid": 2833, "nom_enseigne": "Freshmile", "nom_station": "Vannes, Rue Jean Jaurès", "implantation_station": "Voirie", "nbre_pdc": "2", "horaires": "24/7", "nom_festival": "L'eveil du boucan" }, "geometry": { "type": "Point", "coordinates": [ -2.75518, 47.6507 ] } },
{ "type": "Feature", "properties": { "fid": 3826, "nom_enseigne": "Morbihan Energies", "nom_station": "Vannes - Rue Jean Jaurès", "implantation_station": "Voirie", "nbre_pdc": "2", "horaires": "24/7", "nom_festival": "L'eveil du boucan" }, "geometry": { "type": "Point", "coordinates": [ -2.755181, 47.650702 ] } },
{ "type": "Feature", "properties": { "fid": 3830, "nom_enseigne": "Morbihan Energies", "nom_station": "Vannes - Rue Jean Marie Bécel", "implantation_station": "Voirie", "nbre_pdc": "2", "horaires": "24/7", "nom_festival": "L'eveil du boucan" }, "geometry": { "type": "Point", "coordinates": [ -2.772154, 47.658028 ] } },
{ "type": "Feature", "properties": { "fid": 3834, "nom_enseigne": "Morbihan Energies", "nom_station": "Vannes - Avenue Général Délestraint", "implantation_station": "Voirie", "nbre_pdc": "2", "horaires": "24/7", "nom_festival": "L'eveil du boucan" }, "geometry": { "type": "Point", "coordinates": [ -2.730633, 47.658564 ] } },
{ "type": "Feature", "properties": { "fid": 3837, "nom_enseigne": "Morbihan Energies", "nom_station": "Vannes - Place de la Libération", "implantation_station": "Voirie", "nbre_pdc": "2", "horaires": "24/7", "nom_festival": "L'eveil du boucan" }, "geometry": { "type": "Point", "coordinates": [ -2.763805, 47.65884 ] } },
{ "type": "Feature", "properties": { "fid": 3840, "nom_enseigne": "Morbihan Energies", "nom_station": "Vannes - Rue du Commerce", "implantation_station": "Parking public", "nbre_pdc": "2", "horaires": "24/7", "nom_festival": "L'eveil du boucan" }, "geometry": { "type": "Point", "coordinates": [ -2.754891, 47.642143 ] } },
{ "type": "Feature", "properties": { "fid": 3842, "nom_enseigne": "Morbihan Energies", "nom_station": "Vannes - Place Générale de Gaulle", "implantation_station": "Voirie", "nbre_pdc": "2", "horaires": "24/7", "nom_festival": "L'eveil du boucan" }, "geometry": { "type": "Point", "coordinates": [ -2.753999, 47.658649 ] } },
{ "type": "Feature", "properties": { "fid": 3877, "nom_enseigne": "Morbihan Energies", "nom_station": "Vannes - Rue Henri Matisse", "implantation_station": "Voirie", "nbre_pdc": "2", "horaires": "24/7", "nom_festival": "L'eveil du boucan" }, "geometry": { "type": "Point", "coordinates": [ -2.768083, 47.670911 ] } },
{ "type": "Feature", "properties": { "fid": 3914, "nom_enseigne": "Morbihan Energies", "nom_station": "Vannes - Place de la République", "implantation_station": "Voirie", "nbre_pdc": "2", "horaires": "24/7", "nom_festival": "L'eveil du boucan" }, "geometry": { "type": "Point", "coordinates": [ -2.759406, 47.656324 ] } },
{ "type": "Feature", "properties": { "fid": 844, "nom_enseigne": "OUEST CHARGE - 35", "nom_station": "RENNES - PLACE DU SOUVENIR FRANCAIS", "implantation_station": "Voirie", "nbre_pdc": "2", "horaires": "24/7", "nom_festival": "Dooinit festival" }, "geometry": { "type": "Point", "coordinates": [ -1.64959, 48.104023 ] } },
{ "type": "Feature", "properties": { "fid": 869, "nom_enseigne": "OUEST CHARGE - 35", "nom_station": "CHANTEPIE - AV ANDRE BONIN", "implantation_station": "Voirie", "nbre_pdc": "2", "horaires": "24/7", "nom_festival": "Dooinit festival" }, "geometry": { "type": "Point", "coordinates": [ -1.620366, 48.088831 ] } },
{ "type": "Feature", "properties": { "fid": 2112, "nom_enseigne": "Freshmile", "nom_station": "Rennes, Immeuble le Lotus", "implantation_station": "Voirie", "nbre_pdc": "3", "horaires": "24/7", "nom_festival": "Dooinit festival" }, "geometry": { "type": "Point", "coordinates": [ -1.62903136, 48.0967915 ] } },
{ "type": "Feature", "properties": { "fid": 2478, "nom_enseigne": "Freshmile", "nom_station": "Plouhinec, Rue des Roseaux", "implantation_station": "Voirie", "nbre_pdc": "2", "horaires": "24/7", "nom_festival": "Le chant de l eucalyptus" }, "geometry": { "type": "Point", "coordinates": [ -3.25156, 47.6964 ] } },
{ "type": "Feature", "properties": { "fid": 4194, "nom_enseigne": "Morbihan Energies", "nom_station": "Plouhinec - Rue des Roseaux", "implantation_station": "Voirie", "nbre_pdc": "2", "horaires": "24/7", "nom_festival": "Le chant de l eucalyptus" }, "geometry": { "type": "Point", "coordinates": [ -3.251559, 47.696366 ] } },
{ "type": "Feature", "properties": { "fid": 168, "nom_enseigne": "OUEST CHARGE - 22", "nom_station": "LE HINGLE-PLACE DE LA POSTE", "implantation_station": "Voirie", "nbre_pdc": "2", "horaires": "24/7", "nom_festival": "Festival de bobital l'armor a sons" }, "geometry": { "type": "Point", "coordinates": [ -2.084445, 48.405834 ] } },
{ "type": "Feature", "properties": { "fid": 845, "nom_enseigne": "OUEST CHARGE - 35", "nom_station": "RENNES - PLACE GEORGES BERNANOS", "implantation_station": "Voirie", "nbre_pdc": "2", "horaires": "24/7", "nom_festival": "Rock'n solex" }, "geometry": { "type": "Point", "coordinates": [ -1.660564, 48.123829 ] } },
{ "type": "Feature", "properties": { "fid": 2260, "nom_enseigne": "Freshmile", "nom_station": "Rennes, LS Group Rennes Longchamp", "implantation_station": "Voirie", "nbre_pdc": "4", "horaires": "24/7", "nom_festival": "Rock'n solex" }, "geometry": { "type": "Point", "coordinates": [ -1.637342, 48.130888 ] } },
{ "type": "Feature", "properties": { "fid": 4490, "nom_enseigne": "non_renseigné", "nom_station": "RENNES - Rue De Jouanet", "implantation_station": "Voirie", "nbre_pdc": "2", "horaires": " 24/7", "nom_festival": "Rock'n solex" }, "geometry": { "type": "Point", "coordinates": [ -1.637419, 48.134413 ] } },
{ "type": "Feature", "properties": { "fid": 848, "nom_enseigne": "OUEST CHARGE - 35", "nom_station": "RENNES - RUE MAURICE LE LANNOU", "implantation_station": "Voirie", "nbre_pdc": "2", "horaires": "24/7", "nom_festival": "Festival agrock" }, "geometry": { "type": "Point", "coordinates": [ -1.713573, 48.114941 ] } },
{ "type": "Feature", "properties": { "fid": 884, "nom_enseigne": "OUEST CHARGE - 35", "nom_station": "RENNES - AVENUE DE CUCILLE", "implantation_station": "Voirie", "nbre_pdc": "2", "horaires": "24/7", "nom_festival": "Festival agrock" }, "geometry": { "type": "Point", "coordinates": [ -1.699273, 48.12856 ] } },
{ "type": "Feature", "properties": { "fid": 847, "nom_enseigne": "OUEST CHARGE - 35", "nom_station": "RENNES - PLACE HONORE COMMEREUC", "implantation_station": "Voirie", "nbre_pdc": "2", "horaires": "24/7", "nom_festival": "Festival agrock" }, "geometry": { "type": "Point", "coordinates": [ -1.679739, 48.108482 ] } },
{ "type": "Feature", "properties": { "fid": 1884, "nom_enseigne": "Freshmile", "nom_station": "E.Leclerc, Rennes", "implantation_station": "Voirie", "nbre_pdc": "10", "horaires": "24/7", "nom_festival": "Festival agrock" }, "geometry": { "type": "Point", "coordinates": [ -1.71578361, 48.10448437 ] } },
{ "type": "Feature", "properties": { "fid": 4562, "nom_enseigne": "L'incroyable", "nom_station": "L'incroyable", "implantation_station": "Parking privé à usage public", "nbre_pdc": "12", "horaires": "24/7", "nom_festival": "Festival agrock" }, "geometry": { "type": "Point", "coordinates": [ -1.724781, 48.108326 ] } },
{ "type": "Feature", "properties": { "fid": 4564, "nom_enseigne": "Total Charge Rapide", "nom_station": "RELAIS BARRE THOMAS", "implantation_station": "Station dédiée à la recharge rapide", "nbre_pdc": "2", "horaires": "24/7", "nom_festival": "Festival agrock" }, "geometry": { "type": "Point", "coordinates": [ -1.726344, 48.107428 ] } },
{ "type": "Feature", "properties": { "fid": 884, "nom_enseigne": "OUEST CHARGE - 35", "nom_station": "RENNES - AVENUE DE CUCILLE", "implantation_station": "Voirie", "nbre_pdc": "2", "horaires": "24/7", "nom_festival": "Big love" }, "geometry": { "type": "Point", "coordinates": [ -1.699273, 48.12856 ] } },
{ "type": "Feature", "properties": { "fid": 2730, "nom_enseigne": "Freshmile", "nom_station": "Le Palais, Remparts", "implantation_station": "Voirie", "nbre_pdc": "4", "horaires": "24/7", "nom_festival": "Belle ile on air" }, "geometry": { "type": "Point", "coordinates": [ -3.154, 47.3446389 ] } },
{ "type": "Feature", "properties": { "fid": 3955, "nom_enseigne": "Morbihan Energies", "nom_station": "Le palais - 2 Avenue Carnot", "implantation_station": "Voirie", "nbre_pdc": "2", "horaires": "24/7", "nom_festival": "Belle ile on air" }, "geometry": { "type": "Point", "coordinates": [ -3.15478, 47.3464444 ] } },
{ "type": "Feature", "properties": { "fid": 2729, "nom_enseigne": "Freshmile", "nom_station": "Le Palais, Carnot", "implantation_station": "Voirie", "nbre_pdc": "2", "horaires": "24/7", "nom_festival": "Belle ile on air" }, "geometry": { "type": "Point", "coordinates": [ -3.15478, 47.346444 ] } },
{ "type": "Feature", "properties": { "fid": 2725, "nom_enseigne": "Freshmile", "nom_station": "Le Palais, Hôtel de ville", "implantation_station": "Voirie", "nbre_pdc": "2", "horaires": "24/7", "nom_festival": "Belle ile on air" }, "geometry": { "type": "Point", "coordinates": [ -3.1568056, 47.34725 ] } },
{ "type": "Feature", "properties": { "fid": 4081, "nom_enseigne": "Morbihan Energies", "nom_station": "Le palais - 9-13 Place de L Hôtel de ville", "implantation_station": "Voirie", "nbre_pdc": "2", "horaires": "24/7", "nom_festival": "Belle ile on air" }, "geometry": { "type": "Point", "coordinates": [ -3.15679787965018, 47.347251767038301 ] } },
{ "type": "Feature", "properties": { "fid": 2746, "nom_enseigne": "Freshmile", "nom_station": "Le Palais, Les Glacis", "implantation_station": "Voirie", "nbre_pdc": "2", "horaires": "24/7", "nom_festival": "Belle ile on air" }, "geometry": { "type": "Point", "coordinates": [ -3.15921, 47.3491 ] } },
{ "type": "Feature", "properties": { "fid": 3956, "nom_enseigne": "Morbihan Energies", "nom_station": "Le palais - Les Glacis", "implantation_station": "Parking public", "nbre_pdc": "2", "horaires": "24/7", "nom_festival": "Belle ile on air" }, "geometry": { "type": "Point", "coordinates": [ -3.15921, 47.349146 ] } },
{ "type": "Feature", "properties": { "fid": 828, "nom_enseigne": "OUEST CHARGE - 35", "nom_station": "SAINT MALO - PARKING DES BAS SABLONS  RUE DE LA MONTRE", "implantation_station": "Voirie", "nbre_pdc": "2", "horaires": "24/7", "nom_festival": "Etonnants voyageurs" }, "geometry": { "type": "Point", "coordinates": [ -2.022722, 48.63596 ] } },
{ "type": "Feature", "properties": { "fid": 825, "nom_enseigne": "OUEST CHARGE - 35", "nom_station": "SAINT MALO - PARKING CONSTANTINE  RUE LE POMELLEC", "implantation_station": "Voirie", "nbre_pdc": "2", "horaires": "24/7", "nom_festival": "Etonnants voyageurs" }, "geometry": { "type": "Point", "coordinates": [ -2.01282, 48.636749 ] } },
{ "type": "Feature", "properties": { "fid": 830, "nom_enseigne": "OUEST CHARGE - 35", "nom_station": "SAINT MALO - RUE ANITA CONTI", "implantation_station": "Voirie", "nbre_pdc": "2", "horaires": "24/7", "nom_festival": "Etonnants voyageurs" }, "geometry": { "type": "Point", "coordinates": [ -2.006723, 48.645897 ] } },
{ "type": "Feature", "properties": { "fid": 824, "nom_enseigne": "OUEST CHARGE - 35", "nom_station": "SAINT MALO - ESPLANADE SAINT VINCENT", "implantation_station": "Voirie", "nbre_pdc": "2", "horaires": "24/7", "nom_festival": "Etonnants voyageurs" }, "geometry": { "type": "Point", "coordinates": [ -2.022287, 48.649979 ] } },
{ "type": "Feature", "properties": { "fid": 811, "nom_enseigne": "OUEST CHARGE - 35", "nom_station": "SAINT MALO - BOULEVARD DE LA TOUR D AUVERGNE", "implantation_station": "Voirie", "nbre_pdc": "2", "horaires": "24/7", "nom_festival": "Etonnants voyageurs" }, "geometry": { "type": "Point", "coordinates": [ -2.008066, 48.651604 ] } },
{ "type": "Feature", "properties": { "fid": 845, "nom_enseigne": "OUEST CHARGE - 35", "nom_station": "RENNES - PLACE GEORGES BERNANOS", "implantation_station": "Voirie", "nbre_pdc": "2", "horaires": "24/7", "nom_festival": "Marmaille" }, "geometry": { "type": "Point", "coordinates": [ -1.660564, 48.123829 ] } },
{ "type": "Feature", "properties": { "fid": 2260, "nom_enseigne": "Freshmile", "nom_station": "Rennes, LS Group Rennes Longchamp", "implantation_station": "Voirie", "nbre_pdc": "4", "horaires": "24/7", "nom_festival": "Marmaille" }, "geometry": { "type": "Point", "coordinates": [ -1.637342, 48.130888 ] } },
{ "type": "Feature", "properties": { "fid": 4490, "nom_enseigne": "non_renseigné", "nom_station": "RENNES - Rue De Jouanet", "implantation_station": "Voirie", "nbre_pdc": "2", "horaires": " 24/7", "nom_festival": "Marmaille" }, "geometry": { "type": "Point", "coordinates": [ -1.637419, 48.134413 ] } },
{ "type": "Feature", "properties": { "fid": 775, "nom_enseigne": "OUEST CHARGE - 29", "nom_station": "QUIMPER-RUE ROUGET DE LISLE", "implantation_station": "Voirie", "nbre_pdc": "2", "horaires": "24/7", "nom_festival": "Festival théâtre à tout âge" }, "geometry": { "type": "Point", "coordinates": [ -4.106417, 47.999485 ] } },
{ "type": "Feature", "properties": { "fid": 770, "nom_enseigne": "OUEST CHARGE - 29", "nom_station": "QUIMPER-PLACE DE LA RESISTANCE ET DU GENERAL DE GAULLE", "implantation_station": "Voirie", "nbre_pdc": "2", "horaires": "24/7", "nom_festival": "Festival théâtre à tout âge" }, "geometry": { "type": "Point", "coordinates": [ -4.104504, 47.993977 ] } },
{ "type": "Feature", "properties": { "fid": 772, "nom_enseigne": "OUEST CHARGE - 29", "nom_station": "QUIMPER-PLACE DE LA TOURBIE", "implantation_station": "Voirie", "nbre_pdc": "2", "horaires": "24/7", "nom_festival": "Festival théâtre à tout âge" }, "geometry": { "type": "Point", "coordinates": [ -4.102052, 47.999451 ] } },
{ "type": "Feature", "properties": { "fid": 771, "nom_enseigne": "OUEST CHARGE - 29", "nom_station": "QUIMPER-ALEZ AN EOSTIGED", "implantation_station": "Voirie", "nbre_pdc": "2", "horaires": "24/7", "nom_festival": "Festival théâtre à tout âge" }, "geometry": { "type": "Point", "coordinates": [ -4.095822, 48.006672 ] } },
{ "type": "Feature", "properties": { "fid": 783, "nom_enseigne": "OUEST CHARGE - 29", "nom_station": "QUIMPER-ROUTE DE TY NAY", "implantation_station": "Voirie", "nbre_pdc": "2", "horaires": "24/7", "nom_festival": "Festival théâtre à tout âge" }, "geometry": { "type": "Point", "coordinates": [ -4.095428, 48.010571 ] } },
{ "type": "Feature", "properties": { "fid": 761, "nom_enseigne": "OUEST CHARGE - 29", "nom_station": "QUIMPER-MPT DE KERFEUNTEUN", "implantation_station": "Voirie", "nbre_pdc": "2", "horaires": "24/7", "nom_festival": "Festival théâtre à tout âge" }, "geometry": { "type": "Point", "coordinates": [ -4.093842, 48.00309 ] } },
{ "type": "Feature", "properties": { "fid": 757, "nom_enseigne": "OUEST CHARGE - 29", "nom_station": "QUIMPER-AVENUE DU BRADEN", "implantation_station": "Voirie", "nbre_pdc": "2", "horaires": "24/7", "nom_festival": "Festival théâtre à tout âge" }, "geometry": { "type": "Point", "coordinates": [ -4.08335, 47.984688 ] } },
{ "type": "Feature", "properties": { "fid": 925, "nom_enseigne": "OUEST CHARGE - 35", "nom_station": "FOUGERES - PARKING DU ROCHER COUPE", "implantation_station": "Voirie", "nbre_pdc": "2", "horaires": "24/7", "nom_festival": "Jazz in fougeres" }, "geometry": { "type": "Point", "coordinates": [ -1.210774, 48.355366 ] } },
{ "type": "Feature", "properties": { "fid": 924, "nom_enseigne": "OUEST CHARGE - 35", "nom_station": "FOUGERES - PARKING DE LA DOUVE", "implantation_station": "Voirie", "nbre_pdc": "2", "horaires": "24/7", "nom_festival": "Jazz in fougeres" }, "geometry": { "type": "Point", "coordinates": [ -1.201118, 48.353207 ] } },
{ "type": "Feature", "properties": { "fid": 865, "nom_enseigne": "OUEST CHARGE - 35", "nom_station": "FOUGERES – URBANISTE RUE DE LA FORET", "implantation_station": "Voirie", "nbre_pdc": "2", "horaires": "24/7", "nom_festival": "Jazz in fougeres" }, "geometry": { "type": "Point", "coordinates": [ -1.197093, 48.357157 ] } },
{ "type": "Feature", "properties": { "fid": 921, "nom_enseigne": "OUEST CHARGE - 35", "nom_station": "FOUGERES - ESPLANADE DES CHAUSSONIERES", "implantation_station": "Voirie", "nbre_pdc": "2", "horaires": "24/7", "nom_festival": "Jazz in fougeres" }, "geometry": { "type": "Point", "coordinates": [ -1.194246, 48.349651 ] } },
{ "type": "Feature", "properties": { "fid": 2762, "nom_enseigne": "Freshmile", "nom_station": "Plescop, Rue de la République", "implantation_station": "Voirie", "nbre_pdc": "2", "horaires": "24/7", "nom_festival": "Jazz in plescop" }, "geometry": { "type": "Point", "coordinates": [ -2.80442, 47.6975 ] } },
{ "type": "Feature", "properties": { "fid": 4202, "nom_enseigne": "Morbihan Energies", "nom_station": "Plescop - Rue de la République", "implantation_station": "Voirie", "nbre_pdc": "2", "horaires": "24/7", "nom_festival": "Jazz in plescop" }, "geometry": { "type": "Point", "coordinates": [ -2.804416, 47.697468 ] } },
{ "type": "Feature", "properties": { "fid": 268, "nom_enseigne": "OUEST CHARGE - 22", "nom_station": "LEHON-LE BOURG", "implantation_station": "Voirie", "nbre_pdc": "2", "horaires": "24/7", "nom_festival": "Jazz en place" }, "geometry": { "type": "Point", "coordinates": [ -2.042515, 48.442223 ] } },
{ "type": "Feature", "properties": { "fid": 2114, "nom_enseigne": "Freshmile", "nom_station": "Dinan, Hôtel du Château", "implantation_station": "Voirie", "nbre_pdc": "2", "horaires": "24/7", "nom_festival": "Jazz en place" }, "geometry": { "type": "Point", "coordinates": [ -2.04393, 48.4501 ] } },
{ "type": "Feature", "properties": { "fid": 86, "nom_enseigne": "OUEST CHARGE - 22", "nom_station": "DINAN-PLACE DUGUESCLIN", "implantation_station": "Voirie", "nbre_pdc": "2", "horaires": "24/7", "nom_festival": "Jazz en place" }, "geometry": { "type": "Point", "coordinates": [ -2.0441, 48.450901 ] } },
{ "type": "Feature", "properties": { "fid": 184, "nom_enseigne": "OUEST CHARGE - 22", "nom_station": "LANVALLAY-PLACE DU 19 MARS 1962", "implantation_station": "Voirie", "nbre_pdc": "2", "horaires": "24/7", "nom_festival": "Jazz en place" }, "geometry": { "type": "Point", "coordinates": [ -2.028889, 48.455833 ] } },
{ "type": "Feature", "properties": { "fid": 187, "nom_enseigne": "OUEST CHARGE - 22", "nom_station": "DINAN-PARKING RUE DESROYER", "implantation_station": "Voirie", "nbre_pdc": "2", "horaires": "24/7", "nom_festival": "Jazz en place" }, "geometry": { "type": "Point", "coordinates": [ -2.0562, 48.4561 ] } },
{ "type": "Feature", "properties": { "fid": 2862, "nom_enseigne": "Freshmile", "nom_station": "Dinan, Hôtel Arvor", "implantation_station": "Parking public", "nbre_pdc": "2", "horaires": "24/7", "nom_festival": "Jazz en place" }, "geometry": { "type": "Point", "coordinates": [ -2.042848, 48.452547 ] } },
{ "type": "Feature", "properties": { "fid": 2868, "nom_enseigne": "Freshmile", "nom_station": "Taden, LS Group Dinan", "implantation_station": "Voirie", "nbre_pdc": "4", "horaires": "24/7", "nom_festival": "Jazz en place" }, "geometry": { "type": "Point", "coordinates": [ -2.05903764, 48.4648759 ] } },
{ "type": "Feature", "properties": { "fid": 877, "nom_enseigne": "OUEST CHARGE - 35", "nom_station": "SAINT-JACQUES-DE-LA-LANDE - LA GAITE N1", "implantation_station": "Voirie", "nbre_pdc": "2", "horaires": "24/7", "nom_festival": "Jazz à l'ouest" }, "geometry": { "type": "Point", "coordinates": [ -1.703007, 48.090796 ] } },
{ "type": "Feature", "properties": { "fid": 4, "nom_enseigne": "ELECTRA", "nom_station": "Rennes - Novotel Rennes Alma", "implantation_station": "Station dédiée à la recharge rapide", "nbre_pdc": "4", "horaires": "24/7", "nom_festival": "Jazz à l'ouest" }, "geometry": { "type": "Point", "coordinates": [ -1.682919, 48.082244 ] } },
{ "type": "Feature", "properties": { "fid": 12, "nom_enseigne": "UNIBAIL", "nom_station": "RENNES ALMA - PKG VERT", "implantation_station": "Voirie", "nbre_pdc": "2", "horaires": "24/7", "nom_festival": "Jazz à l'ouest" }, "geometry": { "type": "Point", "coordinates": [ -1.678767, 48.082481 ] } },
{ "type": "Feature", "properties": { "fid": 8, "nom_enseigne": "UNIBAIL", "nom_station": "RENNES ALMA - PKG ORANGE", "implantation_station": "Voirie", "nbre_pdc": "2", "horaires": "24/7", "nom_festival": "Jazz à l'ouest" }, "geometry": { "type": "Point", "coordinates": [ -1.67655, 48.082588 ] } },
{ "type": "Feature", "properties": { "fid": 841, "nom_enseigne": "OUEST CHARGE - 35", "nom_station": "RENNES - AVENUE HENRI FREVILLE", "implantation_station": "Voirie", "nbre_pdc": "2", "horaires": "24/7", "nom_festival": "Jazz à l'ouest" }, "geometry": { "type": "Point", "coordinates": [ -1.674198, 48.092412 ] } },
{ "type": "Feature", "properties": { "fid": 2556, "nom_enseigne": "Freshmile", "nom_station": "St Jacques de la Lande, Super U", "implantation_station": "Voirie", "nbre_pdc": "5", "horaires": "24/7", "nom_festival": "Jazz à l'ouest" }, "geometry": { "type": "Point", "coordinates": [ -1.692802, 48.092451 ] } },
{ "type": "Feature", "properties": { "fid": 2869, "nom_enseigne": "Freshmile", "nom_station": "Rennes, LS Group", "implantation_station": "Voirie", "nbre_pdc": "1", "horaires": "24/7", "nom_festival": "Jazz à l'ouest" }, "geometry": { "type": "Point", "coordinates": [ -1.67808295, 48.08433633 ] } },
{ "type": "Feature", "properties": { "fid": 828, "nom_enseigne": "OUEST CHARGE - 35", "nom_station": "SAINT MALO - PARKING DES BAS SABLONS  RUE DE LA MONTRE", "implantation_station": "Voirie", "nbre_pdc": "2", "horaires": "24/7", "nom_festival": "Jazz à l'étage" }, "geometry": { "type": "Point", "coordinates": [ -2.022722, 48.63596 ] } },
{ "type": "Feature", "properties": { "fid": 825, "nom_enseigne": "OUEST CHARGE - 35", "nom_station": "SAINT MALO - PARKING CONSTANTINE  RUE LE POMELLEC", "implantation_station": "Voirie", "nbre_pdc": "2", "horaires": "24/7", "nom_festival": "Jazz à l'étage" }, "geometry": { "type": "Point", "coordinates": [ -2.01282, 48.636749 ] } },
{ "type": "Feature", "properties": { "fid": 830, "nom_enseigne": "OUEST CHARGE - 35", "nom_station": "SAINT MALO - RUE ANITA CONTI", "implantation_station": "Voirie", "nbre_pdc": "2", "horaires": "24/7", "nom_festival": "Jazz à l'étage" }, "geometry": { "type": "Point", "coordinates": [ -2.006723, 48.645897 ] } },
{ "type": "Feature", "properties": { "fid": 824, "nom_enseigne": "OUEST CHARGE - 35", "nom_station": "SAINT MALO - ESPLANADE SAINT VINCENT", "implantation_station": "Voirie", "nbre_pdc": "2", "horaires": "24/7", "nom_festival": "Jazz à l'étage" }, "geometry": { "type": "Point", "coordinates": [ -2.022287, 48.649979 ] } },
{ "type": "Feature", "properties": { "fid": 811, "nom_enseigne": "OUEST CHARGE - 35", "nom_station": "SAINT MALO - BOULEVARD DE LA TOUR D AUVERGNE", "implantation_station": "Voirie", "nbre_pdc": "2", "horaires": "24/7", "nom_festival": "Jazz à l'étage" }, "geometry": { "type": "Point", "coordinates": [ -2.008066, 48.651604 ] } },
{ "type": "Feature", "properties": { "fid": 254, "nom_enseigne": "OUEST CHARGE - 22", "nom_station": "BELLE ISLE EN TERRE-PLACE DE LEGLISE", "implantation_station": "Voirie", "nbre_pdc": "2", "horaires": "24/7", "nom_festival": "Blues des deux rivieres" }, "geometry": { "type": "Point", "coordinates": [ -3.396323, 48.545696 ] } },
{ "type": "Feature", "properties": { "fid": 2255, "nom_enseigne": "Freshmile", "nom_station": "Brest, route de Gouesnou public", "implantation_station": "Voirie", "nbre_pdc": "2", "horaires": "24/7", "nom_festival": "Atlantique jazz festival" }, "geometry": { "type": "Point", "coordinates": [ -4.46807, 48.4143 ] } },
{ "type": "Feature", "properties": { "fid": 2617, "nom_enseigne": "Freshmile", "nom_station": "Brest-Paulet, Général Paulet -3588", "implantation_station": "Voirie", "nbre_pdc": "2", "horaires": "24/7", "nom_festival": "Atlantique jazz festival" }, "geometry": { "type": "Point", "coordinates": [ -4.475283, 48.415155 ] } },
{ "type": "Feature", "properties": { "fid": 3752, "nom_enseigne": "CPO Alizé Liberté Public", "nom_station": "BREST - Avenue Amiral Réveillère", "implantation_station": "Voirie", "nbre_pdc": "2", "horaires": "Mo-Su 00:00-23:59", "nom_festival": "Atlantique jazz festival" }, "geometry": { "type": "Point", "coordinates": [ -4.482921, 48.387238 ] } },
{ "type": "Feature", "properties": { "fid": 3759, "nom_enseigne": "CPO Alizé Liberté Public", "nom_station": "BREST - Rue Jean Marie Le Bris", "implantation_station": "Voirie", "nbre_pdc": "2", "horaires": "Mo-Su 00:00-23:59", "nom_festival": "Atlantique jazz festival" }, "geometry": { "type": "Point", "coordinates": [ -4.485326, 48.383497 ] } },
{ "type": "Feature", "properties": { "fid": 4376, "nom_enseigne": "Hyundai Brest - Iroise Automobiles", "nom_station": "Hyundai Brest", "implantation_station": "Parking privé à usage public", "nbre_pdc": "2", "horaires": "Mo 08:00-12:00, Mo 14:00-19:00, Tu 08:00-12:00, Tu 14:00-19:00, We 08:00-12:00, We 14:00-19:00, Th 08:00-12:00, Th 14:00-19:00, Fr 08:00-12:00, Fr 14:00-19:00, Sa 09:00-12:00, Sa 14:00-18:00", "nom_festival": "Atlantique jazz festival" }, "geometry": { "type": "Point", "coordinates": [ -4.468967, 48.410809 ] } },
{ "type": "Feature", "properties": { "fid": 4508, "nom_enseigne": "CPO Alizé Liberté Public", "nom_station": "BREST - Avenue Amiral Réveillère", "implantation_station": "Voirie", "nbre_pdc": "2", "horaires": " 24/7", "nom_festival": "Atlantique jazz festival" }, "geometry": { "type": "Point", "coordinates": [ -4.482921123504639, 48.387237548828125 ] } },
{ "type": "Feature", "properties": { "fid": 4516, "nom_enseigne": "CPO Alizé Liberté Public", "nom_station": "BREST - Boulevard Europe - Ctm", "implantation_station": "Voirie", "nbre_pdc": "2", "horaires": " 24/7", "nom_festival": "Atlantique jazz festival" }, "geometry": { "type": "Point", "coordinates": [ -4.465472221374512, 48.416069030761719 ] } },
{ "type": "Feature", "properties": { "fid": 4529, "nom_enseigne": "CPO Alizé Liberté Public", "nom_station": "BREST - Rue Jean Marie Le Bris", "implantation_station": "Voirie", "nbre_pdc": "2", "horaires": " 24/7", "nom_festival": "Atlantique jazz festival" }, "geometry": { "type": "Point", "coordinates": [ -4.485325813293457, 48.383495330810547 ] } },
{ "type": "Feature", "properties": { "fid": 175, "nom_enseigne": "OUEST CHARGE - 22", "nom_station": "PLENEUF VAL ANDRE-RUE CLEMENCEAU", "implantation_station": "Voirie", "nbre_pdc": "2", "horaires": "24/7", "nom_festival": "Jazz a l'amiraute" }, "geometry": { "type": "Point", "coordinates": [ -2.552271, 48.588692 ] } },
{ "type": "Feature", "properties": { "fid": 2652, "nom_enseigne": "Freshmile", "nom_station": "Locmiquelic, Route Départementale -3093", "implantation_station": "Voirie", "nbre_pdc": "2", "horaires": "24/7", "nom_festival": "Blues en rade" }, "geometry": { "type": "Point", "coordinates": [ -3.324557, 47.726101 ] } },
{ "type": "Feature", "properties": { "fid": 969, "nom_enseigne": "OUEST CHARGE - 35", "nom_station": "MONTFORT SUR MEU - PLACE DE LA GARE", "implantation_station": "Voirie", "nbre_pdc": "2", "horaires": "24/7", "nom_festival": "Montfort blues festival" }, "geometry": { "type": "Point", "coordinates": [ -1.950056, 48.138467 ] } },
{ "type": "Feature", "properties": { "fid": 648, "nom_enseigne": "OUEST CHARGE - 29", "nom_station": "CHATEAUNEUF DU FAOU-IMPASSE DE LA GARE", "implantation_station": "Voirie", "nbre_pdc": "2", "horaires": "24/7", "nom_festival": "Fest jazz a chateauneuf du faou" }, "geometry": { "type": "Point", "coordinates": [ -3.818973, 48.192974 ] } },
{ "type": "Feature", "properties": { "fid": 2063, "nom_enseigne": "Freshmile", "nom_station": "E.Leclerc, Châteauneuf-du-Faou", "implantation_station": "Voirie", "nbre_pdc": "4", "horaires": "24/7", "nom_festival": "Fest jazz a chateauneuf du faou" }, "geometry": { "type": "Point", "coordinates": [ -3.8195264, 48.19529571 ] } },
{ "type": "Feature", "properties": { "fid": 909, "nom_enseigne": "OUEST CHARGE - 35", "nom_station": "VITRE - RUE DU FOUGERAY", "implantation_station": "Voirie", "nbre_pdc": "2", "horaires": "24/7", "nom_festival": "Les fanfarfelues" }, "geometry": { "type": "Point", "coordinates": [ -1.218257, 48.108665 ] } },
{ "type": "Feature", "properties": { "fid": 908, "nom_enseigne": "OUEST CHARGE - 35", "nom_station": "VITRE - PLACE DU GENERAL DE GAULLE", "implantation_station": "Voirie", "nbre_pdc": "2", "horaires": "24/7", "nom_festival": "Les fanfarfelues" }, "geometry": { "type": "Point", "coordinates": [ -1.211315, 48.122837 ] } },
{ "type": "Feature", "properties": { "fid": 2254, "nom_enseigne": "Freshmile", "nom_station": "Vitré, Audi Volkswagen Daniel Mouton", "implantation_station": "Voirie", "nbre_pdc": "2", "horaires": "24/7", "nom_festival": "Les fanfarfelues" }, "geometry": { "type": "Point", "coordinates": [ -1.208492, 48.1096611 ] } },
{ "type": "Feature", "properties": { "fid": 4273, "nom_enseigne": "Borne de charge 2X22 KW WITTY PARK", "nom_station": "Le magic, VITRE", "implantation_station": "Parking privé à usage public", "nbre_pdc": "4", "horaires": "Mo-Fr 14:00-18:00", "nom_festival": "Les fanfarfelues" }, "geometry": { "type": "Point", "coordinates": [ -1.21, 48.12 ] } },
{ "type": "Feature", "properties": { "fid": 1013, "nom_enseigne": "OUEST CHARGE - 35", "nom_station": "MAURE DE BRETAGNE - PARKING DU PRESBYTERE", "implantation_station": "Voirie", "nbre_pdc": "2", "horaires": "24/7", "nom_festival": "Cambrouss'ries" }, "geometry": { "type": "Point", "coordinates": [ -1.990164, 47.891972 ] } },
{ "type": "Feature", "properties": { "fid": 489, "nom_enseigne": "OUEST CHARGE - 29", "nom_station": "QUIMPER-BOULEVARD DE BRETAGNE", "implantation_station": "Voirie", "nbre_pdc": "2", "horaires": "24/7", "nom_festival": "Cultures hip hop" }, "geometry": { "type": "Point", "coordinates": [ -4.1279, 47.986479 ] } },
{ "type": "Feature", "properties": { "fid": 775, "nom_enseigne": "OUEST CHARGE - 29", "nom_station": "QUIMPER-RUE ROUGET DE LISLE", "implantation_station": "Voirie", "nbre_pdc": "2", "horaires": "24/7", "nom_festival": "Cultures hip hop" }, "geometry": { "type": "Point", "coordinates": [ -4.106417, 47.999485 ] } },
{ "type": "Feature", "properties": { "fid": 770, "nom_enseigne": "OUEST CHARGE - 29", "nom_station": "QUIMPER-PLACE DE LA RESISTANCE ET DU GENERAL DE GAULLE", "implantation_station": "Voirie", "nbre_pdc": "2", "horaires": "24/7", "nom_festival": "Cultures hip hop" }, "geometry": { "type": "Point", "coordinates": [ -4.104504, 47.993977 ] } },
{ "type": "Feature", "properties": { "fid": 2698, "nom_enseigne": "Freshmile", "nom_station": "Allaire, Rue Le Mauff", "implantation_station": "Voirie", "nbre_pdc": "2", "horaires": "24/7", "nom_festival": "La rue rale" }, "geometry": { "type": "Point", "coordinates": [ -2.16351, 47.638 ] } },
{ "type": "Feature", "properties": { "fid": 3850, "nom_enseigne": "Morbihan Energies", "nom_station": "Allaire - Rue Le Mauff", "implantation_station": "Voirie", "nbre_pdc": "2", "horaires": "24/7", "nom_festival": "La rue rale" }, "geometry": { "type": "Point", "coordinates": [ -2.163514, 47.637975 ] } },
{ "type": "Feature", "properties": { "fid": 489, "nom_enseigne": "OUEST CHARGE - 29", "nom_station": "QUIMPER-BOULEVARD DE BRETAGNE", "implantation_station": "Voirie", "nbre_pdc": "2", "horaires": "24/7", "nom_festival": "Festival circonova" }, "geometry": { "type": "Point", "coordinates": [ -4.1279, 47.986479 ] } },
{ "type": "Feature", "properties": { "fid": 775, "nom_enseigne": "OUEST CHARGE - 29", "nom_station": "QUIMPER-RUE ROUGET DE LISLE", "implantation_station": "Voirie", "nbre_pdc": "2", "horaires": "24/7", "nom_festival": "Festival circonova" }, "geometry": { "type": "Point", "coordinates": [ -4.106417, 47.999485 ] } },
{ "type": "Feature", "properties": { "fid": 770, "nom_enseigne": "OUEST CHARGE - 29", "nom_station": "QUIMPER-PLACE DE LA RESISTANCE ET DU GENERAL DE GAULLE", "implantation_station": "Voirie", "nbre_pdc": "2", "horaires": "24/7", "nom_festival": "Festival circonova" }, "geometry": { "type": "Point", "coordinates": [ -4.104504, 47.993977 ] } },
{ "type": "Feature", "properties": { "fid": 772, "nom_enseigne": "OUEST CHARGE - 29", "nom_station": "QUIMPER-PLACE DE LA TOURBIE", "implantation_station": "Voirie", "nbre_pdc": "2", "horaires": "24/7", "nom_festival": "Festival circonova" }, "geometry": { "type": "Point", "coordinates": [ -4.102052, 47.999451 ] } },
{ "type": "Feature", "properties": { "fid": 771, "nom_enseigne": "OUEST CHARGE - 29", "nom_station": "QUIMPER-ALEZ AN EOSTIGED", "implantation_station": "Voirie", "nbre_pdc": "2", "horaires": "24/7", "nom_festival": "Festival circonova" }, "geometry": { "type": "Point", "coordinates": [ -4.095822, 48.006672 ] } },
{ "type": "Feature", "properties": { "fid": 761, "nom_enseigne": "OUEST CHARGE - 29", "nom_station": "QUIMPER-MPT DE KERFEUNTEUN", "implantation_station": "Voirie", "nbre_pdc": "2", "horaires": "24/7", "nom_festival": "Festival circonova" }, "geometry": { "type": "Point", "coordinates": [ -4.093842, 48.00309 ] } },
{ "type": "Feature", "properties": { "fid": 348, "nom_enseigne": "OUEST CHARGE - 22", "nom_station": "LANNION-BOULEVARD LOUIS GUILLOU PARKING KERMARIA", "implantation_station": "Voirie", "nbre_pdc": "2", "horaires": "24/7", "nom_festival": "Gare au gorille" }, "geometry": { "type": "Point", "coordinates": [ -3.456394, 48.727578 ] } },
{ "type": "Feature", "properties": { "fid": 26, "nom_enseigne": "OUEST CHARGE - 22", "nom_station": "LANNION URSULINES", "implantation_station": "Voirie", "nbre_pdc": "1", "horaires": "24/7", "nom_festival": "Gare au gorille" }, "geometry": { "type": "Point", "coordinates": [ -3.453745, 48.731562 ] } },
{ "type": "Feature", "properties": { "fid": 4280, "nom_enseigne": "OUEST MOTORS LANNION", "nom_station": "Bmw Lannion", "implantation_station": "Parking privé à usage public", "nbre_pdc": "4", "horaires": "Mo 08:45-12:00, Mo 14:00-19:00, Tu 08:45-12:00, Tu 14:00-19:00, We 08:45-12:00, We 14:00-19:00, Th 08:45-12:00, Th 14:00-19:00, Fr 08:45-12:00, Fr 14:00-19:00, Sa 09:00-12:00, Sa 14:00-18:30", "nom_festival": "Gare au gorille" }, "geometry": { "type": "Point", "coordinates": [ -3.4351, 48.733781 ] } },
{ "type": "Feature", "properties": { "fid": 963, "nom_enseigne": "OUEST CHARGE - 35", "nom_station": "DINARD - PARKING DU PORT BRETON", "implantation_station": "Voirie", "nbre_pdc": "2", "horaires": "24/7", "nom_festival": "Dinard film festival" }, "geometry": { "type": "Point", "coordinates": [ -2.054874, 48.622112 ] } },
{ "type": "Feature", "properties": { "fid": 965, "nom_enseigne": "OUEST CHARGE - 35", "nom_station": "DINARD - PARKING DU COSEC", "implantation_station": "Voirie", "nbre_pdc": "2", "horaires": "24/7", "nom_festival": "Dinard film festival" }, "geometry": { "type": "Point", "coordinates": [ -2.066189, 48.623768 ] } },
{ "type": "Feature", "properties": { "fid": 927, "nom_enseigne": "OUEST CHARGE - 35", "nom_station": "DINARD - RUE RAPHAEL VEIL  PARKING DES HALLES", "implantation_station": "Voirie", "nbre_pdc": "2", "horaires": "24/7", "nom_festival": "Dinard film festival" }, "geometry": { "type": "Point", "coordinates": [ -2.058255, 48.631416 ] } },
{ "type": "Feature", "properties": { "fid": 2244, "nom_enseigne": "Freshmile", "nom_station": "E. Leclerc, Douarnenez", "implantation_station": "Voirie", "nbre_pdc": "14", "horaires": "24/7", "nom_festival": "Festival de cinéma de douarnenez gouel ar filmou" }, "geometry": { "type": "Point", "coordinates": [ -4.34581395, 48.09107669 ] } },
{ "type": "Feature", "properties": { "fid": 428, "nom_enseigne": "OUEST CHARGE - 29", "nom_station": "DOUARNENEZ-QUAI FRANCOIS BONIZEC", "implantation_station": "Voirie", "nbre_pdc": "2", "horaires": "24/7", "nom_festival": "Festival de cinéma de douarnenez gouel ar filmou" }, "geometry": { "type": "Point", "coordinates": [ -4.341825, 48.09568 ] } },
{ "type": "Feature", "properties": { "fid": 449, "nom_enseigne": "OUEST CHARGE - 29", "nom_station": "DOUARNENEZ-RUE BERTHELOT", "implantation_station": "Voirie", "nbre_pdc": "2", "horaires": "24/7", "nom_festival": "Festival de cinéma de douarnenez gouel ar filmou" }, "geometry": { "type": "Point", "coordinates": [ -4.330149, 48.092033 ] } },
{ "type": "Feature", "properties": { "fid": 450, "nom_enseigne": "OUEST CHARGE - 29", "nom_station": "DOUARNENEZ-PLACE PAUL STEPHAN", "implantation_station": "Voirie", "nbre_pdc": "2", "horaires": "24/7", "nom_festival": "Festival de cinéma de douarnenez gouel ar filmou" }, "geometry": { "type": "Point", "coordinates": [ -4.32102, 48.086506 ] } },
{ "type": "Feature", "properties": { "fid": 672, "nom_enseigne": "OUEST CHARGE - 29", "nom_station": "DOUARNENEZ - STADE AQUATIQUE", "implantation_station": "Voirie", "nbre_pdc": "2", "horaires": "24/7", "nom_festival": "Festival de cinéma de douarnenez gouel ar filmou" }, "geometry": { "type": "Point", "coordinates": [ -4.317882, 48.082424 ] } },
{ "type": "Feature", "properties": { "fid": 844, "nom_enseigne": "OUEST CHARGE - 35", "nom_station": "RENNES - PLACE DU SOUVENIR FRANCAIS", "implantation_station": "Voirie", "nbre_pdc": "2", "horaires": "24/7", "nom_festival": "Ballade avec brassens" }, "geometry": { "type": "Point", "coordinates": [ -1.64959, 48.104023 ] } },
{ "type": "Feature", "properties": { "fid": 869, "nom_enseigne": "OUEST CHARGE - 35", "nom_station": "CHANTEPIE - AV ANDRE BONIN", "implantation_station": "Voirie", "nbre_pdc": "2", "horaires": "24/7", "nom_festival": "Ballade avec brassens" }, "geometry": { "type": "Point", "coordinates": [ -1.620366, 48.088831 ] } },
{ "type": "Feature", "properties": { "fid": 2112, "nom_enseigne": "Freshmile", "nom_station": "Rennes, Immeuble le Lotus", "implantation_station": "Voirie", "nbre_pdc": "3", "horaires": "24/7", "nom_festival": "Ballade avec brassens" }, "geometry": { "type": "Point", "coordinates": [ -1.62903136, 48.0967915 ] } },
{ "type": "Feature", "properties": { "fid": 828, "nom_enseigne": "OUEST CHARGE - 35", "nom_station": "SAINT MALO - PARKING DES BAS SABLONS  RUE DE LA MONTRE", "implantation_station": "Voirie", "nbre_pdc": "2", "horaires": "24/7", "nom_festival": "Festival quai des bulles" }, "geometry": { "type": "Point", "coordinates": [ -2.022722, 48.63596 ] } },
{ "type": "Feature", "properties": { "fid": 825, "nom_enseigne": "OUEST CHARGE - 35", "nom_station": "SAINT MALO - PARKING CONSTANTINE  RUE LE POMELLEC", "implantation_station": "Voirie", "nbre_pdc": "2", "horaires": "24/7", "nom_festival": "Festival quai des bulles" }, "geometry": { "type": "Point", "coordinates": [ -2.01282, 48.636749 ] } },
{ "type": "Feature", "properties": { "fid": 830, "nom_enseigne": "OUEST CHARGE - 35", "nom_station": "SAINT MALO - RUE ANITA CONTI", "implantation_station": "Voirie", "nbre_pdc": "2", "horaires": "24/7", "nom_festival": "Festival quai des bulles" }, "geometry": { "type": "Point", "coordinates": [ -2.006723, 48.645897 ] } },
{ "type": "Feature", "properties": { "fid": 824, "nom_enseigne": "OUEST CHARGE - 35", "nom_station": "SAINT MALO - ESPLANADE SAINT VINCENT", "implantation_station": "Voirie", "nbre_pdc": "2", "horaires": "24/7", "nom_festival": "Festival quai des bulles" }, "geometry": { "type": "Point", "coordinates": [ -2.022287, 48.649979 ] } },
{ "type": "Feature", "properties": { "fid": 811, "nom_enseigne": "OUEST CHARGE - 35", "nom_station": "SAINT MALO - BOULEVARD DE LA TOUR D AUVERGNE", "implantation_station": "Voirie", "nbre_pdc": "2", "horaires": "24/7", "nom_festival": "Festival quai des bulles" }, "geometry": { "type": "Point", "coordinates": [ -2.008066, 48.651604 ] } },
{ "type": "Feature", "properties": { "fid": 4380, "nom_enseigne": "HUCHET SAS - BMW SAINT MALO", "nom_station": "Bmw Saint-Malo", "implantation_station": "Parking privé à usage public", "nbre_pdc": "7", "horaires": "Mo 08:30-12:15, Mo 14:00-19:00, Tu 08:30-12:15, Tu 14:00-19:00, We 08:30-12:15, We 14:00-19:00, Th 08:30-12:15, Th 14:00-19:00, Fr 08:30-12:15, Fr 14:00-19:00, Sa 09:00-12:30, Sa 14:00-18:00", "nom_festival": "Festival quai des bulles" }, "geometry": { "type": "Point", "coordinates": [ -1.986847, 48.625812 ] } },
{ "type": "Feature", "properties": { "fid": 53, "nom_enseigne": "OUEST CHARGE - 22", "nom_station": "PERROS GUIREC-RUE A. LE BRAZ PARKING DU PORT", "implantation_station": "Voirie", "nbre_pdc": "2", "horaires": "24/7", "nom_festival": "Festival de la bd de perros-guirec" }, "geometry": { "type": "Point", "coordinates": [ -3.441761, 48.807404 ] } },
{ "type": "Feature", "properties": { "fid": 113, "nom_enseigne": "OUEST CHARGE - 22", "nom_station": "PERROS GUIREC-PLACE DE LHOTEL DE VILLE", "implantation_station": "Voirie", "nbre_pdc": "2", "horaires": "24/7", "nom_festival": "Festival de la bd de perros-guirec" }, "geometry": { "type": "Point", "coordinates": [ -3.444974, 48.815392 ] } },
{ "type": "Feature", "properties": { "fid": 788, "nom_enseigne": "OUEST CHARGE - 35", "nom_station": "BETTON - AVENUE D ARMORIQUE", "implantation_station": "Voirie", "nbre_pdc": "2", "horaires": "24/7", "nom_festival": "Festival bazar le jour biz'art la nuit" }, "geometry": { "type": "Point", "coordinates": [ -1.636571, 48.181133 ] } },
{ "type": "Feature", "properties": { "fid": 2342, "nom_enseigne": "Freshmile", "nom_station": "Treffléan, Rue du Dévehat", "implantation_station": "Voirie", "nbre_pdc": "2", "horaires": "24/7", "nom_festival": "Treffl festif" }, "geometry": { "type": "Point", "coordinates": [ -2.61417, 47.6824 ] } },
{ "type": "Feature", "properties": { "fid": 4077, "nom_enseigne": "Morbihan Energies", "nom_station": "Treffléan - Rue du Dévehat", "implantation_station": "Voirie", "nbre_pdc": "2", "horaires": "24/7", "nom_festival": "Treffl festif" }, "geometry": { "type": "Point", "coordinates": [ -2.614167, 47.682369 ] } },
{ "type": "Feature", "properties": { "fid": 271, "nom_enseigne": "OUEST CHARGE - 22", "nom_station": "TREGUEUX - PLACE F. MITTERAND PARKING MAIRIE", "implantation_station": "Voirie", "nbre_pdc": "2", "horaires": "24/7", "nom_festival": "20 min de bonheur en plus" }, "geometry": { "type": "Point", "coordinates": [ -2.736905, 48.490196 ] } },
{ "type": "Feature", "properties": { "fid": 1036, "nom_enseigne": "QOVOLTIS", "nom_station": "52 RUE DU GUÉ LAMBERT Hôtel Kyriad Direct Sai", "implantation_station": "Parking privé à usage public", "nbre_pdc": "6", "horaires": "24/7", "nom_festival": "20 min de bonheur en plus" }, "geometry": { "type": "Point", "coordinates": [ -2.76491, 48.49415 ] } },
{ "type": "Feature", "properties": { "fid": 2561, "nom_enseigne": "Freshmile", "nom_station": "Saint Brieuc, rue Pierre Gilles de Gennes", "implantation_station": "Voirie", "nbre_pdc": "3", "horaires": "Mo-Fr 08:00-18:30,Sa 09:00-17:30", "nom_festival": "20 min de bonheur en plus" }, "geometry": { "type": "Point", "coordinates": [ -2.74049362, 48.50173471 ] } },
{ "type": "Feature", "properties": { "fid": 3493, "nom_enseigne": "Freshmile", "nom_station": "Saint Brieuc, rue Pierre Gilles de Gennes", "implantation_station": "Voirie", "nbre_pdc": "3", "horaires": "Mo-Sa 08:00-18:30", "nom_festival": "20 min de bonheur en plus" }, "geometry": { "type": "Point", "coordinates": [ -2.74069, 48.501797 ] } },
{ "type": "Feature", "properties": { "fid": 4296, "nom_enseigne": "OuestBmw22950*1", "nom_station": "Bmw Saint-Brieuc", "implantation_station": "Parking privé à usage public", "nbre_pdc": "11", "horaires": "24/7", "nom_festival": "20 min de bonheur en plus" }, "geometry": { "type": "Point", "coordinates": [ -2.767727, 48.490066 ] } },
{ "type": "Feature", "properties": { "fid": 4319, "nom_enseigne": "Ford Saint-Brieuc - Contacts automobiles", "nom_station": "Ford Saint-Brieuc", "implantation_station": "Parking privé à usage public", "nbre_pdc": "2", "horaires": "24/7", "nom_festival": "20 min de bonheur en plus" }, "geometry": { "type": "Point", "coordinates": [ -2.74128, 48.5013 ] } },
{ "type": "Feature", "properties": { "fid": 4474, "nom_enseigne": "non_renseigné", "nom_station": "SAINT BRIEUC - Jules Valès", "implantation_station": "Voirie", "nbre_pdc": "2", "horaires": " 24/7", "nom_festival": "20 min de bonheur en plus" }, "geometry": { "type": "Point", "coordinates": [ -2.74826, 48.500991 ] } },
{ "type": "Feature", "properties": { "fid": 4616, "nom_enseigne": "QOVOLTIS", "nom_station": "52 RUE DU GUÉ LAMBERT Hôtel Kyriad Direct Sai", "implantation_station": "Parking privé à usage public", "nbre_pdc": "6", "horaires": "24/7", "nom_festival": "20 min de bonheur en plus" }, "geometry": { "type": "Point", "coordinates": [ -2.7649063, 48.4941535 ] } },
{ "type": "Feature", "properties": { "fid": 847, "nom_enseigne": "OUEST CHARGE - 35", "nom_station": "RENNES - PLACE HONORE COMMEREUC", "implantation_station": "Voirie", "nbre_pdc": "2", "horaires": "24/7", "nom_festival": "Transat en ville" }, "geometry": { "type": "Point", "coordinates": [ -1.679739, 48.108482 ] } },
{ "type": "Feature", "properties": { "fid": 881, "nom_enseigne": "OUEST CHARGE - 35", "nom_station": "RENNES - BOULEVARD MAGENTA", "implantation_station": "Voirie", "nbre_pdc": "2", "horaires": "24/7", "nom_festival": "Transat en ville" }, "geometry": { "type": "Point", "coordinates": [ -1.674677, 48.107149 ] } },
{ "type": "Feature", "properties": { "fid": 841, "nom_enseigne": "OUEST CHARGE - 35", "nom_station": "RENNES - AVENUE HENRI FREVILLE", "implantation_station": "Voirie", "nbre_pdc": "2", "horaires": "24/7", "nom_festival": "Transat en ville" }, "geometry": { "type": "Point", "coordinates": [ -1.674198, 48.092412 ] } },
{ "type": "Feature", "properties": { "fid": 845, "nom_enseigne": "OUEST CHARGE - 35", "nom_station": "RENNES - PLACE GEORGES BERNANOS", "implantation_station": "Voirie", "nbre_pdc": "2", "horaires": "24/7", "nom_festival": "Transat en ville" }, "geometry": { "type": "Point", "coordinates": [ -1.660564, 48.123829 ] } },
{ "type": "Feature", "properties": { "fid": 47, "nom_enseigne": "OUEST CHARGE - 22", "nom_station": "BINIC-AVENUE GENERAL DE GAULLE PARKING SALLE ESTRAN", "implantation_station": "Voirie", "nbre_pdc": "2", "horaires": "24/7", "nom_festival": "Heures musicales de binic" }, "geometry": { "type": "Point", "coordinates": [ -2.829592, 48.601341 ] } },
{ "type": "Feature", "properties": { "fid": 378, "nom_enseigne": "OUEST CHARGE - 29", "nom_station": "LAMPAUL PLOUARZEL-RUE DE LA MAIRIE", "implantation_station": "Voirie", "nbre_pdc": "2", "horaires": "24/7", "nom_festival": "Les petites folies" }, "geometry": { "type": "Point", "coordinates": [ -4.763813, 48.448708 ] } },
{ "type": "Feature", "properties": { "fid": 2448, "nom_enseigne": "Freshmile", "nom_station": "Lorient, Boulevard Abbé Louis le Cam", "implantation_station": "Voirie", "nbre_pdc": "2", "horaires": "24/7", "nom_festival": "Les indisciplinees" }, "geometry": { "type": "Point", "coordinates": [ -3.3596, 47.7305 ] } },
{ "type": "Feature", "properties": { "fid": 4166, "nom_enseigne": "Morbihan Energies", "nom_station": "Lorient - Rue Raymond du Rallier du Baty", "implantation_station": "Voirie", "nbre_pdc": "2", "horaires": "24/7", "nom_festival": "Les indisciplinees" }, "geometry": { "type": "Point", "coordinates": [ -3.373377, 47.731763 ] } },
{ "type": "Feature", "properties": { "fid": 2781, "nom_enseigne": "Freshmile", "nom_station": "Lorient, Rue Raymond du Rallier du Baty", "implantation_station": "Voirie", "nbre_pdc": "2", "horaires": "24/7", "nom_festival": "Les indisciplinees" }, "geometry": { "type": "Point", "coordinates": [ -3.37338, 47.7318 ] } },
{ "type": "Feature", "properties": { "fid": 4172, "nom_enseigne": "Morbihan Energies", "nom_station": "Lorient - Avenue de la Perrière", "implantation_station": "Voirie", "nbre_pdc": "2", "horaires": "24/7", "nom_festival": "Les indisciplinees" }, "geometry": { "type": "Point", "coordinates": [ -3.365966, 47.735396 ] } },
{ "type": "Feature", "properties": { "fid": 2406, "nom_enseigne": "Freshmile", "nom_station": "Lorient, Avenue de la Perrière", "implantation_station": "Voirie", "nbre_pdc": "2", "horaires": "24/7", "nom_festival": "Les indisciplinees" }, "geometry": { "type": "Point", "coordinates": [ -3.36597, 47.7354 ] } },
{ "type": "Feature", "properties": { "fid": 2454, "nom_enseigne": "Freshmile", "nom_station": "Lorient, Rue Moïse Le Bihan", "implantation_station": "Voirie", "nbre_pdc": "2", "horaires": "24/7", "nom_festival": "Les indisciplinees" }, "geometry": { "type": "Point", "coordinates": [ -3.38255, 47.7362 ] } },
{ "type": "Feature", "properties": { "fid": 4173, "nom_enseigne": "Morbihan Energies", "nom_station": "Lorient - Rue Maurice Thorez", "implantation_station": "Voirie", "nbre_pdc": "2", "horaires": "24/7", "nom_festival": "Les indisciplinees" }, "geometry": { "type": "Point", "coordinates": [ -3.393552, 47.739971 ] } },
{ "type": "Feature", "properties": { "fid": 2546, "nom_enseigne": "Freshmile", "nom_station": "Lorient, Rue Maurice Thorez", "implantation_station": "Voirie", "nbre_pdc": "2", "horaires": "24/7", "nom_festival": "Les indisciplinees" }, "geometry": { "type": "Point", "coordinates": [ -3.39355, 47.74 ] } },
{ "type": "Feature", "properties": { "fid": 2416, "nom_enseigne": "Freshmile", "nom_station": "Lorient, Rue de Lanveur", "implantation_station": "Voirie", "nbre_pdc": "2", "horaires": "24/7", "nom_festival": "Les indisciplinees" }, "geometry": { "type": "Point", "coordinates": [ -3.38746, 47.7427 ] } },
{ "type": "Feature", "properties": { "fid": 2696, "nom_enseigne": "Freshmile", "nom_station": "Lorient, Rue Jean le Coutaller", "implantation_station": "Voirie", "nbre_pdc": "2", "horaires": "24/7", "nom_festival": "Les indisciplinees" }, "geometry": { "type": "Point", "coordinates": [ -3.36819, 47.7468 ] } },
{ "type": "Feature", "properties": { "fid": 3847, "nom_enseigne": "Morbihan Energies", "nom_station": "Lorient - Rue Jean le Coutaller", "implantation_station": "Voirie", "nbre_pdc": "2", "horaires": "24/7", "nom_festival": "Les indisciplinees" }, "geometry": { "type": "Point", "coordinates": [ -3.368187, 47.746835 ] } },
{ "type": "Feature", "properties": { "fid": 2414, "nom_enseigne": "Freshmile", "nom_station": "Lorient,  Parking Hôtel de Ville", "implantation_station": "Parking public", "nbre_pdc": "2", "horaires": "24/7", "nom_festival": "Les indisciplinees" }, "geometry": { "type": "Point", "coordinates": [ -3.36581, 47.7489 ] } },
{ "type": "Feature", "properties": { "fid": 4177, "nom_enseigne": "Morbihan Energies", "nom_station": "Lorient - Rue de Lanveur", "implantation_station": "Voirie", "nbre_pdc": "2", "horaires": "24/7", "nom_festival": "Les indisciplinees" }, "geometry": { "type": "Point", "coordinates": [ -3.387461, 47.742671 ] } },
{ "type": "Feature", "properties": { "fid": 4182, "nom_enseigne": "Morbihan Energies", "nom_station": "Lorient - Boulevard Abbé Louis le Cam", "implantation_station": "Parking public", "nbre_pdc": "2", "horaires": "24/7", "nom_festival": "Les indisciplinees" }, "geometry": { "type": "Point", "coordinates": [ -3.359602, 47.730545 ] } },
{ "type": "Feature", "properties": { "fid": 4184, "nom_enseigne": "Morbihan Energies", "nom_station": "Lorient - Rue Moïse Le Bihan", "implantation_station": "Parking public", "nbre_pdc": "2", "horaires": "24/7", "nom_festival": "Les indisciplinees" }, "geometry": { "type": "Point", "coordinates": [ -3.382552, 47.736239 ] } },
{ "type": "Feature", "properties": { "fid": 4232, "nom_enseigne": "Morbihan Energies", "nom_station": "Lorient - Boulevard Leclerc - Parking Hôtel De Ville", "implantation_station": "Voirie", "nbre_pdc": "2", "horaires": "24/7", "nom_festival": "Les indisciplinees" }, "geometry": { "type": "Point", "coordinates": [ -3.36581, 47.748922 ] } },
{ "type": "Feature", "properties": { "fid": 4313, "nom_enseigne": "Volkswagen à Saint-Omer - DELATTRE AUTOMOBILES", "nom_station": "Volkswagen Saint Omer", "implantation_station": "Parking privé à usage public", "nbre_pdc": "4", "horaires": "24/7", "nom_festival": "Les indisciplinees" }, "geometry": { "type": "Point", "coordinates": [ -3.375787, 47.735083 ] } },
{ "type": "Feature", "properties": { "fid": 4348, "nom_enseigne": "BMW LORIENT", "nom_station": "Bmw Lorient", "implantation_station": "Parking privé à usage public", "nbre_pdc": "6", "horaires": "Mo 08:00-12:00, Mo 13:30-19:00, Tu 08:00-12:00, Tu 13:30-19:00, We 08:00-12:00, We 13:30-19:00, Th 08:00-12:00, Th 13:30-19:00, Fr 08:00-12:00, Fr 13:30-19:00, Sa 08:30-12:00, Sa 13:30-19:00", "nom_festival": "Les indisciplinees" }, "geometry": { "type": "Point", "coordinates": [ -3.375791, 47.735093 ] } },
{ "type": "Feature", "properties": { "fid": 847, "nom_enseigne": "OUEST CHARGE - 35", "nom_station": "RENNES - PLACE HONORE COMMEREUC", "implantation_station": "Voirie", "nbre_pdc": "2", "horaires": "24/7", "nom_festival": "Jardins d'hiver" }, "geometry": { "type": "Point", "coordinates": [ -1.679739, 48.108482 ] } },
{ "type": "Feature", "properties": { "fid": 881, "nom_enseigne": "OUEST CHARGE - 35", "nom_station": "RENNES - BOULEVARD MAGENTA", "implantation_station": "Voirie", "nbre_pdc": "2", "horaires": "24/7", "nom_festival": "Jardins d'hiver" }, "geometry": { "type": "Point", "coordinates": [ -1.674677, 48.107149 ] } },
{ "type": "Feature", "properties": { "fid": 841, "nom_enseigne": "OUEST CHARGE - 35", "nom_station": "RENNES - AVENUE HENRI FREVILLE", "implantation_station": "Voirie", "nbre_pdc": "2", "horaires": "24/7", "nom_festival": "Jardins d'hiver" }, "geometry": { "type": "Point", "coordinates": [ -1.674198, 48.092412 ] } },
{ "type": "Feature", "properties": { "fid": 844, "nom_enseigne": "OUEST CHARGE - 35", "nom_station": "RENNES - PLACE DU SOUVENIR FRANCAIS", "implantation_station": "Voirie", "nbre_pdc": "2", "horaires": "24/7", "nom_festival": "Jardins d'hiver" }, "geometry": { "type": "Point", "coordinates": [ -1.64959, 48.104023 ] } },
{ "type": "Feature", "properties": { "fid": 2556, "nom_enseigne": "Freshmile", "nom_station": "St Jacques de la Lande, Super U", "implantation_station": "Voirie", "nbre_pdc": "5", "horaires": "24/7", "nom_festival": "Jardins d'hiver" }, "geometry": { "type": "Point", "coordinates": [ -1.692802, 48.092451 ] } },
{ "type": "Feature", "properties": { "fid": 828, "nom_enseigne": "OUEST CHARGE - 35", "nom_station": "SAINT MALO - PARKING DES BAS SABLONS  RUE DE LA MONTRE", "implantation_station": "Voirie", "nbre_pdc": "2", "horaires": "24/7", "nom_festival": "La route du rock" }, "geometry": { "type": "Point", "coordinates": [ -2.022722, 48.63596 ] } },